route_id,stop_name,stop_id,stop_sequence,stop_lat,stop_lon
BQ88,v.le ungheria,16084,1,45.4454924645648,9.24881935902843
BQ88,rogoredo m3,16078,2,45.4331185802075,9.24009957772113
BQ86,via s. monica v.le testi,17161,1,45.5115976040113,9.2023755816582
BQ86,precotto m1,12562,2,45.5124066823399,9.22429433710687
BQ86,cascina gobba m2,16767,3,45.5113927542714,9.26012785804997
BQ79,gratosoglio,11090,1,45.4037457303297,9.17316253545344
BQ79,p.za abbiategrasso m2,11134,2,45.4306574395196,9.17702931465283
BQ78,san siro stadio m5,17530,1,45.4763367825204,9.11844184495317
BQ78,lotto (fieramilanocity) m1 m5,10658,2,45.4787328233094,9.14420147084575
BQ78,via govone,11007,3,45.4925647314605,9.16290016726909
BQ76,p.za madonna della provvidenza,10181,1,45.4764057067608,9.08896817272877
BQ76,bisceglie m1,10211,2,45.4552419968318,9.11214601394273
BQ75,"via rizzoli, 45",12889,1,45.506897824267,9.25312595458801
BQ75,stazione lambrate m2,16723,2,45.4849299758273,9.23634831675352
BQ68,molino dorino m1,10192,1,45.504898366019,9.0938949665694
BQ68,"via cilea, 70",10110,2,45.4956455243401,9.10320387262111
BQ68,via omodeo via cechov,16936,3,45.4925855829919,9.11701574742409
BQ55,loreto m1 m2,12212,1,45.4858889044849,9.21564757421325
BQ55,stazione lambrate m2,16723,2,45.4849299758273,9.23634831675352
BQ52,niguarda (parco nord),17144,1,45.5245414516849,9.19173165293464
BQ52,bicocca m5,12004,2,45.5154855518772,9.20488954047317
BQ46,cantalupa (area di servizio),16735,1,45.4193756335724,9.15768928999441
BQ46,famagosta m2,15602,2,45.437277340391,9.16927844050092
BQ45,san donato m3,12812,1,45.428703696389,9.25560336355396
BQ45,forlanini,16689,2,45.4619142609243,9.23629646230014
BQ44,cascina gobba m2,12899,1,45.5113147408364,9.26030084259289
BQ44,gorla m1,12554,2,45.5062047089649,9.22253540914223
BQ41,affori fn m3,17139,1,45.5215983877148,9.16835997008441
BQ41,q.re bovisasca,11032,2,45.5150974361922,9.16053911699792
BQ39,stazione lambrate m2,16723,1,45.4849299758273,9.23634831675352
BQ39,via pitteri via rubattino,12693,2,45.4759691444114,9.2470102294745
BQ34,brenta m3,12041,1,45.4422964483133,9.21802279175884
BQ34,noverasco (opera),15240,2,45.3949209512116,9.21240310502202
BNM3,duomo m1 m3,11516,1,45.4618671041785,9.19056396479289
BNM3,missori m3,11510,2,45.4602031189369,9.18884205885316
BNM3,c.so p.ta romana via s. sofia,11519,3,45.4577181934169,9.19309401758225
BNM3,crocetta m3,11760,4,45.4556942276866,9.19638700537106
BNM3,p.ta romana m3,11776,5,45.451415271827,9.20329693970354
BNM3,c.so lodi via friuli,12044,6,45.4481423134121,9.20868084385921
BNM3,lodi m3,12031,7,45.4467213343642,9.21091479955887
BNM3,brenta m3,12040,8,45.4428934103027,9.21784478379097
BNM3,corvetto m3,12347,9,45.440437424586,9.2229687202762
BNM3,porto di mare m3,12964,10,45.4378774719723,9.23181663500336
BNM3,cassinis,18132,11,45.4342426533436,9.2366056996442
BNM3,rogoredo m3,12599,12,45.4323645907622,9.24029657993644
BNM3,san donato m3,12809,13,45.4288656780491,9.25568837272896
BNM3,san donato m3,12811,14,45.4293947106473,9.25679535624325
BNM2,p.za abbiategrasso m2,16932,1,45.4306624359508,9.17679535495107
BNM2,famagosta m2,11113,2,45.4376903432579,9.1684143998792
BNM2,p.za miani,10800,3,45.4382632530917,9.15523755399269
BNM2,via e. ponti p.za bilbao,17459,4,45.4427702136578,9.15721456125261
BNM2,v.le cassala,10816,5,45.4443162480079,9.1622394304521
BNM2,romolo m2,12943,6,45.4435152808071,9.16767936759714
BNM2,p.ta genova m2,11178,7,45.4527701741657,9.1701013454119
BNM2,c.so colombo p.le cantore,11193,8,45.4549271560948,9.17224924788572
BNM2,s. agostino m2,17770,9,45.4600541170154,9.17156322298515
BNM2,carducci,18128,10,45.4628105633943,9.17395247868598
BNM2,cadorna m1 m2,11273,11,45.4674770167676,9.17671413831676
BNM2,cairoli m1,11525,12,45.4677080393531,9.18105712775025
BNM2,lanza m2,16919,13,45.4723429569661,9.1816190412719
BNM2,p.za lega lombarda,17704,14,45.4781213004738,9.18090071215028
BNM2,via farini via ferrari,11590,15,45.4855098277167,9.18281296976863
BNM2,stazione garibaldi m2 m5,15666,16,45.4835383466972,9.18633850906153
BNM2,gioia m2,11868,17,45.484868872199,9.19566486478651
BNM2,stazione centrale via tonale,11928,18,45.4880698405878,9.20418873945873
BNM2,caiazzo m2,12185,19,45.4854729072642,9.20939660808952
BNM2,loreto m1 m2,12210,20,45.4842369402284,9.21575655947452
BNM2,piola m2,12487,21,45.4807649882457,9.22537646762842
BNM2,stazione lambrate m2,12712,22,45.4847259633043,9.23649830400053
BNM2,udine m2,12735,23,45.4905139607554,9.23706127344271
BNM2,cimiano m2,12766,24,45.4994588736787,9.23998819025148
BNM2,crescenzago m2,12782,25,45.5050227630479,9.24729906427287
BNM2,"via padova, 353",12892,26,45.5115697574638,9.25576492638876
BNM2,cascina gobba m2,13807,27,45.5114237561134,9.26034589446469
BNM1,via ulivi via larici,10130,1,45.454166924493,9.08375642118149
BNM1,via ulivi via betulle,10134,2,45.4536978991079,9.08566731436156
BNM1,via bagarotti via gozzoli,10138,3,45.4562529059825,9.09159823384381
BNM1,via bagarotti via da rosciate,10162,4,45.4573399378735,9.09400918627499
BNM1,via cabella via da rosciate,17065,5,45.4588758772327,9.09307620548874
BNM1,via f.ze armate via f.lli di dio,10059,6,45.4600058829341,9.09842721053262
BNM1,via f.ze armate via cividale,10063,7,45.4595489082605,9.1009911766427
BNM1,via f.ze armate via nikolajevka,10066,8,45.4598229157654,9.10590604244162
BNM1,via f.ze armate via sella nuova,10067,9,45.4601169310813,9.10911702767612
BNM1,via viterbo via lucca,10219,10,45.4569999687015,9.11254799551391
BNM1,bisceglie m1 (via lucca),10209,11,45.4557529906773,9.11237303473569
BN27,v.le ungheria via salomone,12614,1,45.4456524322128,9.24342344351552
BN27,"v.le ungheria, 20",17694,2,45.4456683692751,9.24629944537032
BN27,v.le ungheria via del liri,17695,3,45.4457622832008,9.24831630015198
BN27,v.le ungheria l.go guerrieri gonzaga,17696,4,45.4459277640925,9.25174255872477
BN27,v.le ungheria via mecenate,12824,5,45.4466185054095,9.25463631873843
BN27,via mecenate v.le ungheria,12825,6,45.4482394578006,9.25469427149875
BN27,via mecenate via quintiliano,12839,7,45.449587456354,9.25284530180028
BN27,via mecenate via fantoli,12835,8,45.4505564206699,9.25152431879109
BN27,"via mecenate, 77",17048,9,45.4530453914032,9.24817637029001
BN27,p.za ovidio,17050,10,45.4577413081979,9.24175640378674
BN27,via marco bruto,17051,11,45.4596512834015,9.2390954267548
BN27,via repetti,17052,12,45.4607816805902,9.23831125128088
BN27,forlanini,12647,13,45.4620752573601,9.23599341416289
BN27,v.le corsica via lomellina,12405,14,45.4622991975982,9.23095054400103
BN27,v.le corsica via battistotti sassi,12400,15,45.4623192209885,9.22826054010559
BN27,v.le campania v.le corsica,12391,16,45.4621861781186,9.22443256896103
BN27,p.za grandi,12127,17,45.4622211801877,9.22022165101852
BN27,p.za emilia,12125,18,45.4622481943692,9.21783966636936
BN27,via cadore c.so ventidue marzo,12111,19,45.4622541837805,9.21495869383894
BN27,p.za s. maria del suffragio,12098,20,45.4622821817372,9.21162277559805
BN27,p.za cinque giornate,12095,21,45.4623021841201,9.20802777322981
BN27,c.so p.ta vittoria (camera del lavoro),11820,22,45.4623401614245,9.20329684545175
BN27,palazzo di giustizia,17854,23,45.4627680559387,9.20063775504673
BN27,cavallotti,18155,24,45.4639899954684,9.19635980204224
BN27,via larga,17769,25,45.4628000308883,9.19420666985763
BN27,missori m3,17855,26,45.4602138283424,9.19020048227741
BN27,duomo m1 m3,16929,27,45.4617001553105,9.1893220581151
BN26,stazione centrale m2 m3,11885,1,45.4862708699739,9.20202369889306
BN26,stazione centrale p.za duca d'aosta m2 m3,11889,2,45.484230922836,9.20316572035483
BN26,via vitruvio,11893,3,45.4824859348558,9.20640572171988
BN26,lima m1,12187,4,45.4802679582444,9.21053865912487
BN26,via plinio via eustachi,12194,5,45.4782050081227,9.214369636541
BN26,p.za adelaide di savoia,12147,6,45.4735410550727,9.21469564067467
BN26,c.so indipendenza via bronzetti,12143,7,45.4688201222815,9.21464267018502
BN26,via cadore c.so ventidue marzo,12109,8,45.4625291919964,9.21460770649445
BN26,p.za s. maria del suffragio,12098,9,45.4622821817372,9.21162277559805
BN26,p.za cinque giornate,12095,10,45.4623021841201,9.20802777322981
BN26,v.le regina margherita via besana,11828,11,45.4597511943306,9.20606084299749
BN26,v.le regina margherita via lamarmora,11821,12,45.4577672343075,9.20456884266969
BN26,p.ta romana m3,17588,13,45.4513562951491,9.20227290310555
BN26,via ripamonti v.le sabotino,11767,14,45.4509802466478,9.19711898761297
BN26,via bocconi,11471,15,45.4509822432453,9.19060208558409
BN26,porta lodovica,11460,16,45.4517802276264,9.18711312846187
BN26,v.le col di lana,11452,17,45.452138235023,9.18346815182067
BN26,p.za ventiquattro maggio,17559,18,45.4524041894855,9.17959821044041
BN26,via vigevano v.le gorizia,11199,19,45.4527502071882,9.17624923820362
BN26,p.ta genova m2,11182,20,45.4532931412388,9.17049032240307
BN26,c.so colombo p.le cantore,11193,21,45.4549271560948,9.17224924788572
BN26,v.le coni zugna via solari,11184,22,45.4574701113886,9.16898029645406
BN26,p.le aquileia,17038,23,45.4612610262082,9.16364338131433
BN26,conciliazione m1,11242,24,45.4673629830869,9.1653073266243
BN26,cadorna m1 m2,16895,25,45.4677840494074,9.17588617751805
BN26,cadorna m1 m2,11277,26,45.4689510255387,9.17675312504025
BN25,stazione centrale m2 m3,16875,1,45.4866238645082,9.20253769170821
BN25,p.za s. gioachimo,12991,2,45.4814609463724,9.19807882565433
BN25,stazione garibaldi m2 m5,15671,3,45.4838198647302,9.18718388895273
BN25,via farini via ferrari,11589,4,45.4858738416714,9.18245500447822
BN25,via procaccini via messina,17837,5,45.4842114471717,9.17567856776696
BN25,p.za gramsci,11290,6,45.4820308554856,9.16802316266376
BN25,c.so sempione prima di via canova,18022,7,45.4778160671095,9.16884020706606
BN25,triennale,11265,8,45.4713799767241,9.17316620915132
BN25,cadorna m1 m2,11275,9,45.4687670294876,9.17745215427224
BN24,vigentino,15081,1,45.421481628141,9.2032760891585
BN24,via ripamonti via chopin,11704,2,45.4261615823609,9.20327003645828
BN24,via ripamonti via val di sole,11717,3,45.4285875287555,9.20264403073885
BN24,via ripamonti via noto,11720,4,45.4314355135248,9.2017830190436
BN24,via ripamonti via dell'assunta,11722,5,45.4331104669655,9.20132005830378
BN24,via ripamonti via quaranta,11714,6,45.4356314696317,9.20082801684842
BN24,via ripamonti via barletta,11743,7,45.4380064299797,9.20029703889687
BN24,via ripamonti via serio,17053,8,45.4406433930816,9.19972297270984
BN24,via ripamonti via lorenzini,17054,9,45.4439773460574,9.19884899707912
BN24,v.le isonzo via ripamonti,17055,10,45.4459815718295,9.19836248412135
BN24,via ripamonti via bellezza,11765,11,45.4483113061179,9.19756398945683
BN24,via ripamonti v.le sabotino,11756,12,45.4506962729166,9.19695897345624
BN24,c.so p.ta vigentina,11758,13,45.4535252477037,9.1962100147882
BN24,crocetta m3,11761,14,45.4559341973187,9.19560001262714
BN24,c.so p.ta romana via s. sofia,11520,15,45.4582071672587,9.192461021905
BN24,missori m3,16937,16,45.460428111621,9.18867505304135
BN24,duomo m1 m3,16929,17,45.4617001553105,9.1893220581151
BN15,duomo m1 m3,16929,1,45.4617001553105,9.1893220581151
BN15,c.so italia (missori m3),11498,2,45.4593111474841,9.1878500813527
BN15,c.so italia via s. sofia,11465,3,45.4566881770133,9.18739805922845
BN15,c.so italia via lusardi,11462,4,45.4540732129878,9.18694610581698
BN15,v.le col di lana,11452,5,45.452138235023,9.18346815182067
BN15,p.za ventiquattro maggio,11447,6,45.4522982122579,9.18108815893588
BN15,c.so s. gottardo via lagrange,11442,7,45.4490062682305,9.17964222908013
BN15,l.go mahler,11169,8,45.4457982711276,9.17926126402078
BN15,v.le tibaldi via meda,11168,9,45.4437873231536,9.17897827875592
BN15,via meda via spaventa,11164,10,45.4413313357052,9.17864530469461
BN15,via montegani v.le da cermenate,11162,11,45.4381613367409,9.17830426370013
BN15,via montegani via palmieri,11138,12,45.4351203898162,9.17790431129525
BN15,via montegani via neera,11135,13,45.4332394096305,9.17766532261367
BN15,p.za abbiategrasso m2,16843,14,45.4295544407083,9.17759132430129
BN15,via dei missaglia via boifava,16901,15,45.4265484843686,9.17734342528201
BN15,via dei missaglia (isola anita),16903,16,45.4227185243368,9.17703938415398
BN15,via dei missaglia via de ruggiero,16904,17,45.418174567813,9.17554546798886
BN15,via dei missaglia via feraboli,16905,18,45.4140346148858,9.17494249812357
BN15,via dei missaglia via saponaro,16906,19,45.4099856903561,9.17442551767205
BN15,via dei missaglia (scuola santarosa),16907,20,45.406730704557,9.17479354646953
BN15,gratosoglio,15270,21,45.4030607251815,9.17369855444033
B99,vigentino,15086,1,45.4211306161312,9.20374807889244
B99,via ripamonti (ist. europeo oncologia),11701,2,45.4131347219891,9.20626706474095
B99,"via ripamonti, 514",12011,3,45.4062757966393,9.20800407767419
B99,via ripamonti via quintosole,12012,4,45.4031788325772,9.20881111563063
B99,casa di reclusione (opera),11702,5,45.3991518713992,9.20598616005545
B99,"ss 412, 1 (opera)",13421,6,45.3946969465132,9.21092213648276
B99,noverasco (opera),15240,7,45.3949209512116,9.21240310502202
B98,bande nere m1,10387,1,45.4623309876943,9.13659266946253
B98,via d'alviano via tuberose,10567,2,45.4584880144052,9.1384017135374
B98,via soderini via d'alviano,10545,3,45.4555250240977,9.14010163403458
B98,p.za frattini,10549,4,45.4512371091954,9.14237469983367
B98,via brunelleschi,10551,5,45.4487281497682,9.14391263668807
B98,via l. il moro cavalcavia don milani,10527,6,45.4453341753525,9.14614263134752
B98,p.za ohm,10533,7,45.4418781946782,9.14871866916708
B98,via s. rita via bari,10796,8,45.4393092595575,9.15202462281175
B98,via s. rita p.za miani,10798,9,45.4380562989363,9.1536105970355
B98,via voltri via ovada,10770,10,45.4361263245811,9.15449961399295
B98,via voltri via di rudini',10763,11,45.4343803776922,9.15446159856847
B98,ospedale san paolo,10781,12,45.4329843717687,9.15886656091789
B98,via s. vigilio (pronto soccorso),16071,13,45.4338023878775,9.16254951453768
B98,via s. vigilio via s. paolino,10792,14,45.4346873779451,9.16382848935411
B98,famagosta m2,17479,15,45.4367753520696,9.16872644294071
B965,Via Milano (Scuole) (Pioltello),16463,1,45.5016150808616,9.33464899388862
B965,Via Milano (Scuole) (Pioltello),16464,2,45.5019300836386,9.33459502176909
B965,Via Mozart Via Cimarosa (Pioltello),16465,3,45.5047290648751,9.33336897860693
B965,Via Tiepolo (Pioltello),16499,4,45.5061170435025,9.33135703176676
B965,Via Perugino (Pioltello),16500,5,45.5061160036537,9.32961504186813
B965,Via Nenni Via Roma (Pioltello),16501,6,45.5093739474773,9.32713204504775
B965,Via Moro Via Togliatti (Pioltello),16502,7,45.5055549717013,9.32627609382026
B965,Via Virgilio Via Moro (Pioltello),16503,8,45.5021230677575,9.32554112713535
B965,Str.Cassanese Via Milano (Pioltello),16504,9,45.4996340755831,9.31370029413541
B965,Via Cassanese Via Di Vittorio (Segrate),16505,10,45.4977689891449,9.30006849298277
B965,Via Cassanese Via Giovanni XXIII (Segrate),16506,11,45.496986030451,9.29334254544825
B965,via cassanese via monzese (segrate),16507,12,45.4961179893868,9.28822858380449
B965,via cassanese via marconi (segrate),16014,13,45.4935880158449,9.27712677518376
B965,via cassanese via radaelli (segrate),15201,14,45.4912990032562,9.26802891363105
B965,q.re feltre,12728,15,45.4868239937147,9.24539018526857
B965,p.za gobetti,12510,16,45.4857419467365,9.23323736917948
B965,via pecchio v.le abruzzi,12228,17,45.4844249540003,9.21774355156718
B965,P.za Aspromonte,16509,18,45.4843109545913,9.21956757267253
B95,q.re barona,10510,1,45.4381222456143,9.13897677426075
B95,via chiodi v.le faenza,10512,2,45.4384662601148,9.1412137883305
B95,via tobagi v.le faenza,10522,3,45.4391162235339,9.143371736972
B95,via tobagi via olgiati,10526,4,45.4400652368726,9.1466996767384
B95,via tobagi via s. rita,10531,5,45.4408502510993,9.14945867278647
B95,via s. rita via bari,10796,6,45.4393092595575,9.15202462281175
B95,via s. rita p.za miani,10798,7,45.4380562989363,9.1536105970355
B95,p.za miani,10774,8,45.4369492743613,9.15560459705114
B95,v.le famagosta via venosta,10782,9,45.4371303575963,9.15906551910228
B95,v.le famagosta via lope de vega,10793,10,45.4372513595195,9.16306050643747
B95,famagosta m2,11114,11,45.4373873042056,9.16812541125925
B95,p.za maggi,11121,12,45.4373613712917,9.17147138189142
B95,via montegani v.le da cermenate,11400,13,45.4373814002093,9.17913529298962
B95,v.le da cermenate via volvinio,11410,14,45.4372525459985,9.18405732081273
B95,via antonini via lampedusa,11414,15,45.4371731579054,9.18689661319223
B95,via antonini via verro,11707,16,45.437126394703,9.19300212443028
B95,p.za chiaradia,11710,17,45.4370604342244,9.1972990658605
B95,via ripamonti via quaranta,11724,18,45.4360984339582,9.20135206689661
B95,via quaranta via gargano,11732,19,45.4364344629725,9.20493298833069
B95,via quaranta via d'agrate,12019,20,45.4367964486713,9.2087029245788
B95,via d'agrate via cassano d'adda,12022,21,45.4368514693147,9.21310286011599
B95,via d'agrate p.za angilberto ii,12023,22,45.4367964672895,9.21603780909166
B95,via ravenna via pomposa,12025,23,45.4356755038981,9.2187987925187
B95,via cinquecento via ravenna,12328,24,45.4351315393247,9.22052679262724
B95,p.le gabriele rosa,12332,25,45.4369625099885,9.22339374836648
B95,v.le martini,12350,26,45.4389234843978,9.22425574895125
B95,via boncompagni via avezzana,12963,27,45.4396944759734,9.22782966576845
B95,porto di mare m3,12964,28,45.4378774719723,9.23181663500336
B95,via boncompagni via pallia,12965,29,45.4368015008043,9.23415261142479
B95,cassinis,18132,30,45.4342426533436,9.2366056996442
B94,cadorna m1 m2,11275,1,45.4687670294876,9.17745215427224
B94,cadorna m1 m2,11274,2,45.4673110019221,9.17643513670928
B94,carducci ,18827,3,45.4650503426654,9.17499708131946
B94,carducci,18127,4,45.462827596516,9.17382597631927
B94,s. ambrogio m2,11221,5,45.4612211023047,9.17381521767107
B94,p.za resistenza partigiana,11235,6,45.459119112538,9.17708918449331
B94,colonne di s. lorenzo,11475,7,45.4572631248541,9.18135614093884
B94,via molino delle armi p.za vetra,11449,8,45.4568771701907,9.18289013429346
B94,c.so italia via s. sofia,11468,9,45.4560191817124,9.18718908268469
B94,via s. sofia via s. senatore,11472,10,45.4569311556992,9.1903740326863
B94,ospedale policlinico,11790,11,45.4587191727878,9.19462796028581
B94,via f. sforza via andreani,11795,12,45.4604691474568,9.19622097849593
B94,l.go augusto,11808,13,45.462822152598,9.19846489009608
B94,via visconti di modrone,11812,14,45.4651561139526,9.2002778678809
B94,via s. damiano c.so monforte,11815,15,45.4672800888135,9.20047883851487
B94,c.so venezia via senato,11846,16,45.4693080715895,9.19877887046118
B94,p.za cavour,11839,17,45.4718700103593,9.19574285877749
B94,turati m3,11841,18,45.4755779624824,9.19606289469681
B94,via moscova c.so di p.ta nuova,11562,19,45.4762629899861,9.19249187915953
B94,via moscova via solferino,11599,20,45.4772439313399,9.18736799438727
B94,moscova m2,11593,21,45.4776569410904,9.18516904117674
B94,p.za lega lombarda,11581,22,45.4782519221662,9.18212405777277
B94,p.le baiamonti,11575,23,45.4816638863054,9.18144402499084
B93,stazione lambrate m2,16723,1,45.4849299758273,9.23634831675352
B93,stazione lambrate m2,12706,2,45.4841740260103,9.23615032159276
B93,via valvassori peroni,12705,3,45.4816979849991,9.23650934076433
B93,via bassini via golgi,12699,4,45.4806529989621,9.23457137640326
B93,via bassini via ponzio,12498,5,45.4794420328735,9.2308103984089
B93,via celoria (istituto besta),12493,6,45.4771570941262,9.22994944955772
B93,p.le gorini (istituto dei tumori),12446,7,45.4737551349518,9.22971646127438
B93,via b. angelico via aselli,12444,8,45.4712301248717,9.2300444838075
B93,via aselli v.le argonne,12442,9,45.4691321914752,9.23007752491483
B93,via lomellina via sismondi,12404,10,45.4658691708457,9.23011753917891
B93,via sismondi p.za adigrat,12401,11,45.4656091690722,9.22773752159987
B93,via sismondi v.le campania,12397,12,45.4655881811789,9.22453760735555
B93,v.le campania v.le corsica,12393,13,45.4624751806103,9.22377458630581
B93,porta vittoria,15524,14,45.4594962624554,9.22381961659334
B93,v.le molise,12379,15,45.4568342813885,9.22389964431861
B93,v.le molise via cadibona,12378,16,45.4539253098599,9.22386368313776
B93,p.le cuoco,12375,17,45.4517823313615,9.22368870052124
B93,v.le puglie,12373,18,45.448334404181,9.22402967104307
B93,p.le bologna,12355,19,45.4434074304666,9.22401267661153
B93,corvetto m3,12352,20,45.4407974844758,9.22403373103247
B93,v.le martini,12349,21,45.4386484613872,9.22413973928361
B93,p.le gabriele rosa,12333,22,45.4373135010718,9.22336576887774
B93,v.le omero via barabino,12336,23,45.4345805277543,9.22393974477535
B93,v.le omero,12335,24,45.4324775417196,9.22468472873653
B926,san felicino (peschiera b.),13331,1,45.4568325507782,9.31663947730498
B926,via abruzzi via toscana (peschiera b.),13332,2,45.4596805308839,9.31386450393103
B926,via veneto via toscana (peschiera b.),13333,3,45.4618684760519,9.31367147976708
B926,via trieste via veneto (peschiera b.),13334,4,45.4640704652876,9.31196250354859
B926,trieste,18141,5,45.4633325845687,9.30664496963116
B926,via trieste strada provinciale (peschiera b.),13335,6,45.4632694080725,9.30313357671439
B926,stazione segrate,17926,7,45.4815489096551,9.2983360613973
B925,udine m2,13536,1,45.4916399464808,9.23663827044333
B925,via feltre via pisani dossi,12746,2,45.4912709061449,9.24302119645828
B925,"via feltre, 100",12871,3,45.491535928688,9.24962913609457
B925,v.le turchia (cascina biblioteca),13537,4,45.4961299269077,9.25783900203951
B925,portineria milano 2 (segrate),15197,5,45.4969379162528,9.26304694210084
B925,milano due (segrate),15198,6,45.4943909437884,9.26470395375456
B925,res. archi milano 2 (segrate),15199,7,45.4972089345664,9.26652586827147
B925,res. portici milano 2 (segrate),13539,8,45.499610923425,9.26739485820983
B925,res. ponti milano 2 (segrate),13540,9,45.5014648761837,9.26851680706184
B925,ufficio postale milano 2 (segrate),15196,10,45.5040618493824,9.26879978023597
B925,ospedale san raffaele,13542,11,45.5071328115819,9.26780178717675
B925,via olgettina (amsa),13543,12,45.5096782365408,9.26705714989463
B925,"via olgettina, 5",13544,13,45.5118737701957,9.26725279487197
B925,cascina gobba m2,13525,14,45.5113487930769,9.26060186973944
B924,stazione lambrate m2,17820,1,45.4840786814211,9.23723543615946
B924,stazione lambrate m2,12706,2,45.4841740260103,9.23615032159276
B924,via viotti via bassini,12713,3,45.4828260602499,9.23764132646042
B924,via c. flaminio via saccardo,12716,4,45.4814770591835,9.24115926138055
B924,via c. flaminio via dei canzi,12719,5,45.4801240774008,9.24235325418202
B924,via bistolfi via s. faustino,12724,6,45.4773410677118,9.24308230211547
B924,via pitteri via tanzi,12690,7,45.4772820836834,9.2457532223955
B924,via rubattino via pitteri,12694,8,45.4763410875557,9.24767826300834
B924,"via rubattino, 6",12857,9,45.4767551245572,9.24951320527642
B924,via rubattino (tangenziale est),12865,10,45.4777751447666,9.25424415164782
B924,"via rubattino, 81",12867,11,45.4785021359422,9.25745610168079
B924,via milano via reggio emilia (segrate),13211,12,45.4800131246776,9.2678499606792
B924,v.le abruzzi via milano (segrate),13212,13,45.4791231728346,9.26960990178561
B924,redecesio (segrate),13213,14,45.4763651566776,9.26932192974302
B924,v.le abruzzi via milano (segrate),13214,15,45.4791721500156,9.26973495157247
B924,v.le delle regioni v.le romagna (segrate),13215,16,45.4826771252835,9.26998188970026
B924,via redecesio via trento (segrate),13216,17,45.4842931284602,9.27576481072546
B924,via modigliani via primo maggio (segrate),13217,18,45.4873341404198,9.29080261618981
B924,via modigliani via roma (segrate),16001,19,45.4873251228585,9.29593154795196
B924,via cellini via cristei (segrate),16852,20,45.4896290751666,9.29610357963041
B924,via morandi (cimitero) (segrate),16853,21,45.4918580597789,9.29907647826718
B924,via morandi via battisti (segrate),16854,22,45.4968470163255,9.29985547380356
B924,via giovanni xxiii via s.carlo (segrate),13223,23,45.499216991859,9.29321854291987
B923,stazione fs,17977,1,45.4817766226842,9.29824065706697
B923,via morandi via modigliani (segrate),13218,2,45.4875311338413,9.29793652733061
B923,via morandi via cristei (segrate),13219,3,45.4893791267554,9.2986085497793
B923,via morandi via battisti (segrate),16854,4,45.4968470163255,9.29985547380356
B923,via cassanese via marconi (segrate),16014,5,45.4935880158449,9.27712677518376
B923,lavanderie (segrate),15195,6,45.4872450520819,9.26840088655279
B923,v.le delle regioni v.le romagna (segrate),13234,7,45.482255130077,9.2698339504802
B923,v.le abruzzi via milano (segrate),13212,8,45.4791231728346,9.26960990178561
B923,redecesio (segrate),13213,9,45.4763651566776,9.26932192974302
B922,di vittorio - cassanese,17986,1,45.4982696837144,9.30101233770565
B922,vespucci - colombo,17985,2,45.4997073598888,9.30418059672247
B922,via morelli (segrate),16855,3,45.5038269418679,9.29821448535534
B922,via giovanni xxiii via s.carlo (segrate),13223,4,45.499216991859,9.29321854291987
B922,v.le manzoni via monzese (segrate),13224,5,45.5013829583156,9.28741059429587
B922,via amendola via olgetta (segrate),16012,6,45.5000949304056,9.28456165382062
B922,via amendola via nenni (segrate),16013,7,45.4978489850524,9.28470761370674
B922,via monzese via nenni (segrate),13226,8,45.4974500102777,9.2885616036692
B922,via cassanese via marconi (segrate),16014,9,45.4935880158449,9.27712677518376
B922,via cassanese via radaelli (segrate),15201,10,45.4912990032562,9.26802891363105
B922,via f.lli cervi via cassanese (segrate),15202,11,45.4910590181831,9.26175999536781
B922,milano due (segrate),15198,12,45.4943909437884,9.26470395375456
B922,res. archi milano 2 (segrate),15199,13,45.4972089345664,9.26652586827147
B92,lodi m3,13805,1,45.4467743575117,9.20827789983904
B92,p.le lodi v.le umbria m3,13165,2,45.4481743128089,9.21081285717965
B92,v.le umbria via muratori,13166,3,45.4503673123119,9.21256375846121
B92,v.le umbria via comelico,12070,4,45.4532932857646,9.21515776886125
B92,via maestri campionesi,12077,5,45.4552662744712,9.21652574359645
B92,via arconati,12115,6,45.457595248308,9.21745369307993
B92,p.za emilia,14871,7,45.4619472045348,9.21743864832333
B92,v.le piceno,17270,8,45.4658001596408,9.21738766875476
B92,dateo,17271,9,45.4683881188137,9.21730366384331
B92,v.le dei mille p.za novelli,17272,10,45.4703050959469,9.2172566377081
B92,p.za ascoli,17273,11,45.4740050563478,9.21720463153174
B92,v.le abruzzi via plinio,17274,12,45.4774210352925,9.21720059027075
B92,p.le bacone,17277,13,45.4805399767463,9.21715357466554
B92,via piccinni v.le abruzzi,12208,14,45.4820669353288,9.2164776011088
B92,p.le loreto via pergolesi,12198,15,45.483588939879,9.21337859260159
B92,caiazzo m2,12184,16,45.4856129233009,9.209306642203
B92,p.za luigi di savoia,12176,17,45.4866518811109,9.20727068285772
B92,stazione centrale via tonale,11931,18,45.4883268402115,9.20389968233129
B92,sondrio m3,11918,19,45.4899578216149,9.20068577500529
B92,v.le sauro via oldofredi,11906,20,45.4913218280024,9.19776180578184
B92,zara m3/m5,11895,21,45.4925087793156,9.19335582007747
B92,v.le stelvio via lario,11641,22,45.4931107616984,9.19107284421808
B92,via farini v.le stelvio,11622,23,45.4945377297763,9.18559389926269
B92,via bernina,11610,24,45.4956217320491,9.18156992117275
B92,lancetti,11327,25,45.4954586772603,9.17690600575007
B92,p.le nigra,11361,26,45.4958227143687,9.17193908116927
B92,via imbriani via scalvini,17703,27,45.4991165864453,9.16941023788335
B92,bausan,11329,28,45.5015786246027,9.16629706562377
B92,via broglio via vare',11025,29,45.5025065830654,9.16270817359835
B92,bovisa (politecnico),11024,30,45.5031885496609,9.16125212640374
B92,via bovisasca via morghen,11020,31,45.505296521464,9.16013510872295
B92,via cosenz via grazzini,14075,32,45.5065115408341,9.16012915170531
B92,via durando via cosenz,11033,33,45.5062235522983,9.16325610173885
B92,via bovisasca via morghen,11019,34,45.5046565612098,9.1602721042914
B92,bovisa (politecnico),11018,35,45.5031165882781,9.16116410116913
B92,via vare',11023,36,45.5017785996222,9.16208813467193
B91,lotto (fieramilanocity) m1 m5,10644,1,45.4796847926396,9.1426514810323
B91,p.le zavattari,10650,2,45.4767098443731,9.14275751434025
B91,v.le murillo via ricciarelli,10622,3,45.4734048337827,9.14394553302787
B91,p.le brescia (osp. san luca),10626,4,45.4718518795777,9.14445054851206
B91,p.le brescia,10624,5,45.469618884748,9.1451275402918
B91,p.za ghirlandaio,10628,6,45.4671869036033,9.14587754354732
B91,v.le bezzi via trivulzio,10583,7,45.4655929242063,9.14650554921388
B91,v.le bezzi via marostica,10589,8,45.4627510314667,9.14814255140782
B91,p.le tripoli,10594,9,45.4598240343346,9.1498745643983
B91,v.le misurata,10597,10,45.457540079566,9.15115555436988
B91,p.za bolivar,10823,11,45.4546531178635,9.15286057307672
B91,p.za napoli,10826,12,45.452090092335,9.15437953511774
B91,p.le delle milizie v.le troya,15637,13,45.4499641814375,9.15594248124515
B91,ponte delle milizie,10840,14,45.4480332253585,9.15779752730637
B91,v.le cassala,10814,15,45.4450902173141,9.16223146896416
B91,romolo m2,11146,16,45.4440342258054,9.16747238849291
B91,p.za belfanti,11149,17,45.4438342629219,9.17189933058674
B91,v.le liguria,11157,18,45.4436622652273,9.17552728717009
B91,v.le tibaldi via meda,11166,19,45.4435083170391,9.17864625776942
B91,tibaldi,15375,20,45.4444143007887,9.18342317762112
B91,v.le toscana via castelbarco,13168,21,45.4458292906889,9.18800011584454
B91,v.le toscana via vittadini,13169,22,45.4462873065537,9.19417904309584
B91,v.le isonzo via ripamonti,13170,23,45.4464433356585,9.19766102918262
B91,p.za trento,13171,24,45.4467303539481,9.20410595381501
B91,lodi m3,13164,25,45.4467333276945,9.20913688627292
B902,via dante via xxv aprile (peschiera b.),17002,1,45.4330998107047,9.31162364866239
B902,via xxv aprile via moro (peschiera b.),16205,2,45.4330277556222,9.30780769832936
B902,via xxv aprile via della resistenza (peschiera b.),16206,3,45.4363657253441,9.29623984964771
B902,via della resistenza via s.maria (peschiera b.),16207,4,45.4384906727204,9.29529083425387
B902,via della resistenza via ponchielli (peschiera b.),16208,5,45.4401756663709,9.29497186664129
B902,via della resistenza via nenni (peschiera b.),16209,6,45.4432826076271,9.29445086704963
B902,via turati via curiel (peschiera b.),16210,7,45.4447406061202,9.29245684788338
B902,via f.lli bandiera via 4 novembre (peschiera b.),16173,8,45.4396206467188,9.28504298528885
B902,via sauro via f.lli rosselli (peschiera b.),16174,9,45.4380316614958,9.28697994636722
B902,via di vittorio via xxv aprile (peschiera b.),16211,10,45.4364516665338,9.28885395648258
B902,via di vittorio v.le primo maggio (peschiera b.),16184,11,45.4273967848758,9.28849801767193
B902,via di vittorio via liberazione (peschiera b.),16185,12,45.4248478044257,9.28951097729883
B902,s.p.paullese via gela (s.donato m.se),16212,13,45.4223188216376,9.28266608703582
B902,s.p.paullese via moro (s.donato m.se),16213,14,45.4283427124142,9.27049722044085
B902,san donato m3,16290,15,45.42920164562,9.25676638874029
B901,san felicino (peschiera b.),13331,1,45.4568325507782,9.31663947730498
B901,via abruzzi via toscana (peschiera b.),13332,2,45.4596805308839,9.31386450393103
B901,via veneto via toscana (peschiera b.),13333,3,45.4618684760519,9.31367147976708
B901,via trieste via veneto (peschiera b.),13334,4,45.4640704652876,9.31196250354859
B901,trieste,18141,5,45.4633325845687,9.30664496963116
B901,via trieste strada provinciale (peschiera b.),13335,6,45.4632694080725,9.30313357671439
B901,via s.bovio portineria s.felice (segrate),16346,7,45.475364273144,9.30407453347761
B901,via turati via curiel (peschiera b.),16175,8,45.4446416307258,9.29255487453169
B901,via della resistenza via nenni (peschiera b.),16176,9,45.4431886185209,9.29430682026226
B901,via della resistenza via ponchielli (peschiera b.),16177,10,45.4406486249529,9.29473187680056
B901,via della resistenza via s.maria (peschiera b.),16178,11,45.4384106798225,9.2951638458176
B901,via xxv aprile via moro (peschiera b.),16179,12,45.4331847366093,9.30682574739161
B901,via xxv aprile via dante (peschiera b.),16180,13,45.4320228002534,9.311091679256
B901,via monti via leopardi (peschiera b.),16181,14,45.4332448128746,9.31618962378319
B901,via quasimodo via ungaretti (peschiera b.),16182,15,45.4372417342228,9.31516062390893
B901,via quasimodo via dante (peschiera b.),17001,16,45.4367377462288,9.31127264458096
B901,via dante via xxv aprile (peschiera b.),17002,17,45.4330998107047,9.31162364866239
B901,via matteotti via a.moro (peschiera b.),15761,18,45.4292688646067,9.30929573110499
B901,via f.lli cervi via padre pio (peschiera b.),16166,19,45.4230548780461,9.30878978352277
B901,via grandi via legnano (mediglia),16345,20,45.4215699255342,9.30889974659505
B901,via grandi via da vinci (mediglia),16167,21,45.4182889775924,9.31048777958812
B901,via grandi via da vinci (mediglia),16168,22,45.4184709651881,9.31051480856695
B901,via grandi via magenta (peschiera b.),16169,23,45.4211909528003,9.30916676947646
B901,via f.lli cervi via padre pio (peschiera b.),16170,24,45.4235818508332,9.30890480401889
B901,via della liberazione via de amicis (peschiera b.),16347,25,45.4253308205242,9.29939787770159
B901,via maritano rondo' delle ricerche (s.donato m.se),16186,26,45.4180128701417,9.28171014717949
B901,via maritano via monticello (s.donato),16686,27,45.4145389043921,9.27781119035021
B901,via europa (ospedale) (s.donato),16154,28,45.4129849334434,9.27547425288294
B901,via europa p.za dalla chiesa (s.donato),16157,29,45.4158498901403,9.27190525850878
B901,via europa via m. di cefalonia (s.donato),16155,30,45.4170198605243,9.27048927799595
B90,lodi m3,13158,1,45.447018354953,9.20848884970724
B90,p.za trento,13159,2,45.4467903394943,9.20380089766407
B90,v.le isonzo via ripamonti,13160,3,45.4465673247152,9.19840296928772
B90,v.le toscana via vittadini,13161,4,45.4463892914109,9.19472307871927
B90,v.le toscana via castelbarco,13162,5,45.4458522965588,9.18788314672442
B90,tibaldi,15376,6,45.4444513246959,9.18323223340319
B90,v.le tibaldi via meda,11167,7,45.4436122862658,9.17822629294989
B90,v.le liguria,11160,8,45.4437612726834,9.17522529021898
B90,p.za belfanti,11148,9,45.4439192799865,9.17173836638249
B90,romolo m2,11147,10,45.4441432960599,9.16729039940522
B90,v.le cassala,10817,11,45.4447102821367,9.16366842992312
B90,ponte delle milizie,10841,12,45.4483972068036,9.15776748469966
B90,p.le delle milizie v.le troya,15638,13,45.4501301920192,9.15583252710513
B90,p.za napoli,10832,14,45.4528420932479,9.15404347973343
B90,p.za bolivar,10827,15,45.4556570796596,9.15240450863743
B90,v.le misurata,10859,16,45.45751306696,9.1513025048021
B90,p.le tripoli,10595,17,45.4608100285861,9.14945353380853
B90,v.le bezzi via marostica,10596,18,45.4633729848911,9.14789957093115
B90,p.za ghirlandaio,10586,19,45.4663589207539,9.14625452424135
B90,p.le brescia,10625,20,45.4697759141067,9.14520753523782
B90,p.le brescia (osp. san luca),10627,21,45.4719958803338,9.14451452902948
B90,v.le murillo via ricciarelli,15632,22,45.4730758964975,9.14416550294144
B90,p.le zavattari,10525,23,45.4753628211227,9.14346451436122
B90,lotto (fieramilanocity) m1 m5,10653,24,45.480106801708,9.14324450832461
B89,via ciccotti (affori fn m3),16793,1,45.5225993925015,9.16694498727717
B89,via l. modignani via comasina,11371,2,45.5237953249648,9.16526797077319
B89,l.go abbagnano (comasina m3),15905,3,45.5269012864085,9.16426494690444
B89,comasina m3,17102,4,45.5288383081985,9.1633249670817
B89,via comasina via novate,16841,5,45.5310712771712,9.1622819626563
B89,via polveriera via bellini (novate),17170,6,45.5306792533672,9.15361507429869
B89,via polveriera via bovisasca (novate),17103,7,45.528776274639,9.14923812398555
B89,via rimembranze via latini (novate),10009,8,45.5300342596597,9.14378221801136
B89,via matteotti via cavour (novate),10001,9,45.5315141653802,9.14099327526464
B89,via cavour via morandi (novate),10002,10,45.5323071947304,9.14445517304723
B89,via brodolini via cavour (novate),15151,11,45.5332762224044,9.14645815719636
B89,"via balossa, 22 (novate)",15152,12,45.534717211736,9.14532016775608
B89,"via roma, 4 (novate)",15153,13,45.533176160229,9.13967920209738
B89,via bollate via volta (novate),15154,14,45.5341441602261,9.13568927871145
B89,novate milanese,15487,15,45.5372791342149,9.13010633088367
B88,v.le aviazione,12850,1,45.4607743008744,9.25421624377877
B88,v.le aviazione via fantoli,12846,2,45.4552764225342,9.25914821657128
B88,via fantoli via monlue',12844,3,45.4539193766544,9.25511027456963
B88,via fantoli via mecenate,12842,4,45.4516523760675,9.25166933626563
B88,via mecenate via fantoli,12831,5,45.4504604023307,9.25105034734703
B88,via mecenate via quintiliano,12837,6,45.448962439539,9.25311030860492
B88,v.le ungheria via mecenate,17697,7,45.4469044669156,9.25459494981988
B88,l.go guerrieri gonzaga,12818,8,45.4452774918012,9.25039534884693
B88,via bonfadini via del liri,12813,9,45.4451224417209,9.24923635099933
B88,via sordello via bonfadini,16079,10,45.4438164895552,9.2455064310058
B88,via manz via cascella,16080,11,45.4382179729959,9.24083162764705
B88,via pizzolpasso via manzu',16081,12,45.4372552518119,9.23960897462718
B88,via pizzolpasso via del futurismo,16083,13,45.4351308117763,9.24119899785408
B88,rogoredo m3,16078,14,45.4331185802075,9.24009957772113
B87,universit bicocca,17151,1,45.518185555031,9.21265543348022
B87,arcimboldi ateneo nuovo,15934,2,45.5169165707304,9.21320041074291
B87,teatro arcimboldi,15891,3,45.5149915744061,9.21302043182782
B87,v.le dell'innovazione via temolo,15931,4,45.5111106274946,9.21083348635061
B87,via cozzi via e. de marchi,15749,5,45.5088996600359,9.20881752385442
B87,via e. de marchi via breda,12287,6,45.5071676971823,9.21050147421304
B87,cimitero di greco,12277,7,45.50408670864,9.21181451361565
B87,p.za greco,12271,8,45.502138697827,9.21130152388346
B87,v.le rimembranze di greco,12274,9,45.4995957806601,9.21185849567324
B87,v.le rim. di greco l.go s.valentino,17731,10,45.4972908151576,9.21272459997517
B87,via f. aporti via d'apulia,17732,11,45.4950333258535,9.21488207129599
B87,via f. aporti via varanini,17733,12,45.4935719873641,9.21349358746443
B87,via sammartini via zuccoli,17734,13,45.4939528156127,9.21030160911623
B87,via sammartini via parravicini,12236,14,45.4923868388143,9.20894264449722
B87,v.le lunigiana,14076,15,45.491326847914,9.20792563243147
B87,stazione centrale via tonale,11934,16,45.4881368560872,9.20475966135386
B87,stazione centrale m2 m3,11884,17,45.4872628736395,9.20278975218011
B86,cascina gobba m2,16767,1,45.5113927542714,9.26012785804997
B86,"via padova, 353",12893,2,45.511916721201,9.25598993397813
B86,via padova via palmanova,13886,3,45.5111257499955,9.25379496954709
B86,p.za costantino,13887,4,45.50983772061,9.24817103315756
B86,via adriano via del ricordo,12802,5,45.5115547123492,9.24678004442858
B86,via adriano via brambilla,13888,6,45.5143616620399,9.24544606666955
B86,q.re adriano,16995,7,45.5162156897497,9.2444930423453
B86,via tremelloni via tognazzi,17318,8,45.5161716710285,9.24089307918824
B86,via tognazzi via mastroianni,17167,9,45.5146035876298,9.24148247257521
B86,via gassman via tognazzi,17165,10,45.5135326957968,9.23968907620762
B86,via gassman via tremelloni,17163,11,45.5143666127908,9.23634316447506
B86,via tremelloni via p.te nuovo,16787,12,45.5137386875917,9.23386516925659
B86,via padre semeria,12573,13,45.5126916563144,9.23304720272551
B86,via cislaghi via don porro,12570,14,45.5126666493105,9.22948027739066
B86,precotto m1,12567,15,45.5123426482625,9.22518932018458
B86,via pelitti,12565,16,45.5137255932857,9.22445328272676
B86,l.go mattei,12556,17,45.5144806458085,9.22256333071839
B86,via andolfato,12313,18,45.5154365964796,9.21928335704411
B86,via breda via gilardi,12298,19,45.5132906049451,9.21687242384094
B86,via breda via rucellai,12294,20,45.5117086154182,9.21533940403303
B86,via breda via angeleri,12291,21,45.5092416425232,9.21359247074997
B86,via e. de marchi via breda,12289,22,45.5074476729145,9.2103525135559
B86,via cozzi via e. de marchi,15745,23,45.5080276389253,9.20806454815481
B86,via pianell via ugolini,15746,24,45.5069416545274,9.20598956601643
B86,v.le sarca via rabolini,15634,25,45.5052806406093,9.20138465438171
B86,ca' granda m5,17168,26,45.5060066599233,9.20080064988621
B86,v.le testi via pianell,11984,27,45.5086186410611,9.20231261710969
B86,v.le testi via s. marcellina,13123,28,45.5109295995317,9.2036315593238
B86,via s. monica v.le testi,17161,29,45.5115976040113,9.2023755816582
B84,v.le martini,15295,1,45.4388014799862,9.22433270704672
B84,corvetto m3,12351,2,45.4407044590252,9.22447772648567
B84,p.le bologna,12354,3,45.4435044006444,9.22442570683234
B84,v.le puglie,12372,4,45.4500483655685,9.22416462561672
B84,p.le cuoco,12369,5,45.4517703322208,9.22280470974444
B84,p.za insubria,12365,6,45.4531413036387,9.22162968735705
B84,p.za imperatore tito,12080,7,45.4540733072011,9.21905173720282
B84,via maestri campionesi,12076,8,45.4554222623492,9.21715269119021
B84,via cadore via spartaco,12101,9,45.4575402393802,9.21335478093796
B84,via spartaco via morosini,12097,10,45.4583632269112,9.21125376072809
B84,v.le monte nero via spartaco,12087,11,45.4596122048538,9.20772384122107
B84,via besana via podgora,11819,12,45.4616041496537,9.20339187508507
B84,palazzo di giustizia,17854,13,45.4627680559387,9.20063775504673
B84,cavallotti,18155,14,45.4639899954684,9.19635980204224
B84,via verziere,18009,15,45.462865145621,9.19627112466773
B83,comasina m3,16803,1,45.5293462483602,9.1631249451105
B83,via comasina via novate,16841,2,45.5310712771712,9.1622819626563
B83,s.p. 199 via comasinella (cormano),16804,3,45.5362222313003,9.17657976070278
B83,via comasinella via bizzozzero (cormano),16805,4,45.5383222276278,9.17716574703215
B83,via cadorna via brodolini (cormano),16807,5,45.541901173301,9.17974071342253
B83,via cadorna via roma (bresso),16808,6,45.5432161762825,9.18475964625166
B83,via pascoli via marconi (bresso),15463,7,45.5427762081258,9.18757460254393
B83,via vitt. veneto via gobetti (bresso),13348,8,45.540616245569,9.18936656751455
B83,via vitt. veneto via villa (bresso),13104,9,45.5378632477742,9.19110057041703
B83,via vitt. veneto via patellani (bresso),13105,10,45.5357353024333,9.19271053944809
B83,via vitt. veneto via dante (bresso),13106,11,45.5321723553054,9.19303454063417
B83,via vitt. veneto via giovanni xxiii (bresso),13107,12,45.5288693899503,9.19272261495127
B83,niguarda (parco nord),15416,13,45.5247474233672,9.19225567329578
B83,cascina california,11694,14,45.5228234216339,9.19208166562203
B83,niguarda nord,11690,15,45.5187734594783,9.19144370593946
B83,p.za belloveso,15414,16,45.515672503142,9.19352367936838
B83,via giovanni danzi,15777,17,45.5137895220518,9.19306570047261
B83,via santhia' via girola,15839,18,45.5113125522617,9.19272971998371
B83,via cherasco,11673,19,45.5105695741257,9.19301570346236
B83,ospedale maggiore (niguarda),15837,20,45.5087895959633,9.19156076764031
B83,via benefattori dell'ospedale,11663,21,45.5071026199204,9.18860278926368
B83,osp. maggiore (via zubiani),16094,22,45.5073825964123,9.18526682967275
B82,zara m3/m5,17343,1,45.4932117767117,9.19271182178236
B82,via farini v.le stelvio,15531,2,45.4946317410612,9.18564185760443
B82,maciachini m3,15557,3,45.497524696195,9.18355088809784
B82,via livigno v.le jenner,11352,4,45.4977846714043,9.17867194157899
B82,via livigno via m.te s. genesio,11353,5,45.4999906581877,9.17838194821103
B82,via livigno via abba,11356,6,45.5020746266335,9.1781109699035
B82,p.za dergano,11348,7,45.5028736102369,9.17670794474224
B82,via tartini via carnevali,11350,8,45.5048405952324,9.17593096414755
B82,via candiani via tartini,11362,9,45.5059015446923,9.17389397786561
B82,via candiani via don minzoni,11340,10,45.5049166081793,9.17045102257238
B82,via maffucci via baldinucci,11337,11,45.5038655854022,9.1694380166234
B82,bausan,11330,12,45.5025535609569,9.16602908338861
B82,via broglio via vare',11025,13,45.5025065830654,9.16270817359835
B82,bovisa (politecnico),11024,14,45.5031885496609,9.16125212640374
B82,via bovisasca via morghen,11020,15,45.505296521464,9.16013510872295
B82,via bovisasca via cosenz,11030,16,45.5074884807873,9.15957518542119
B82,via nicolodi via tukory,11031,17,45.5122064945958,9.16170306009096
B82,via nicolodi via pedroni,11357,18,45.5123284725652,9.16477001692453
B82,via gabbro via bovisasca,11028,19,45.5145794713717,9.15762811738351
B82,q.re bovisasca,15577,20,45.5150714709243,9.16015506521737
B82,via gabbro via assietta,11043,21,45.5171104131759,9.16003108004812
B82,via bovisasca via el alamein,11042,22,45.5171744025124,9.1562170983574
B82,via bovisasca via maffi,11038,23,45.5181264249469,9.15397612620592
B82,via maffi via sertoli,13127,24,45.5166543942622,9.15049019533547
B82,via gentile da fabriano,13128,25,45.5158274391284,9.15031923131109
B82,via cerkovo (q.re bovisasca),11037,26,45.5164084012559,9.15309916537853
B81,stazione centrale p.za duca d'aosta m2 m3,15635,1,45.4845898911612,9.20282175182639
B81,via galvani via copernico,11881,2,45.4862148601397,9.19963280190245
B81,sondrio m3,11911,3,45.4890038294261,9.20043271643095
B81,v.le lunigiana via gioia,11932,4,45.4915418110381,9.20343869355336
B81,via gioia via cagliero,11940,5,45.4939697812583,9.20634660234897
B81,via gioia via tirano,12265,6,45.4969247890317,9.20813564759818
B81,via e. de marchi via s. r. delle ande,15847,7,45.4991607678096,9.20861555628953
B81,p.za greco,15848,8,45.502010703988,9.21043457692002
B81,cimitero di greco,12278,9,45.5045047122146,9.21221349612302
B81,via e. de marchi via breda,12286,10,45.5065186848477,9.21124452039455
B81,via breda via angeleri,12292,11,45.5097676507563,9.21390946488155
B81,via breda via rucellai,12295,12,45.5116776077084,9.21546142949004
B81,via breda via gilardi,12297,13,45.5135016143436,9.21714740502877
B81,via breda via capelli,12314,14,45.516174580717,9.21928938628541
B81,via breda via vipacco,15461,15,45.5179345880735,9.221557331938
B81,villa san giovanni m1,15462,16,45.5173785664143,9.22521824515254
B81,v.le monza via empedocle,12584,17,45.5192966130394,9.22685524895293
B81,sesto marelli m1,12587,18,45.5230035257558,9.22795522393102
B81,sesto marelli m1,15079,19,45.5239245282024,9.22876418317316
B80,quinto romano,10177,1,45.4765646754181,9.08626821636362
B80,via de sica,10178,2,45.4777556494033,9.08670518525753
B80,via togni via s. romanello,10182,3,45.4782406743427,9.08859017033923
B80,p.za madonna della provvidenza,10180,4,45.4763016589245,9.0888121815697
B80,"via caldera, 111",10174,5,45.4757327137721,9.09245417034351
B80,"via caldera, 65",10071,6,45.4762976855205,9.0973630937053
B80,via caldera via novara,10074,7,45.4788136932055,9.10264200885815
B80,via novara via cascina bellaria,10076,8,45.4780277042857,9.1064629214593
B80,novara - sant' elena,18457,9,45.4766791356391,9.11034818488515
B80,via harar via pinerolo,10254,10,45.476118740419,9.11475786688842
B80,san siro stadio m5,17531,11,45.4760767820507,9.11822987448886
B80,via s. giusto via dessie',16999,12,45.4754117940552,9.12074881125241
B80,via novara via s. giusto,10261,13,45.4725008212326,9.11946684918025
B80,via novara via fleming,10389,14,45.4701808237516,9.12314383150552
B79,gratosoglio,11090,1,45.4037457303297,9.17316253545344
B79,via baroni via saponaro,11084,2,45.4045507041184,9.17082257457001
B79,"via baroni, 59",11086,3,45.4068876714281,9.17000458029556
B79,"via baroni, 47",11071,4,45.4085956827508,9.17095255418498
B79,"via baroni, 13/a",11074,5,45.4113626510363,9.17190953480518
B79,"via baroni, 36",11076,6,45.4125136039757,9.17226948198159
B79,via gratosoglio via baroni,11075,7,45.4141455983186,9.1708795280209
B79,via gratosoglio via feraboli,12971,8,45.4150295610139,9.16959149053551
B79,via feraboli via gratosoglio,11070,9,45.4164196104612,9.16960649847041
B79,via gratosoglio via chiesa rossa,10749,10,45.4174215233067,9.16505660345248
B79,casina basmetto,18092,11,45.4131958884892,9.16457950607264
B79,via chiesa rossa via pienza,11099,12,45.4203314900286,9.16638855738062
B79,via chiesa rossa via boifava,11102,13,45.4264874758558,9.16995344924713
B79,via boifava via s. giacomo,11103,14,45.4268364518131,9.17156944202845
B79,"via s. giacomo, 1/a",11122,15,45.4285574386432,9.17317941710076
B79,via savio via s. giacomo,11129,16,45.4300404378689,9.1743873823359
B79,p.za abbiategrasso m2,11132,17,45.4299464820732,9.17696737777255
B79,medeghino,11401,18,45.4313364731277,9.18047426878963
B79,agrippa,11402,19,45.4326374469011,9.18302328728053
B79,via valla p.za agrippa,11413,20,45.4340734170208,9.18550718526499
B79,"via lampedusa, 13",11415,21,45.4357394246854,9.18776024222145
B79,via antonini via lampedusa,11418,22,45.4376593867086,9.18789522415997
B79,via bazzi via biondelli,11433,23,45.4398043613118,9.18790517750879
B79,via bazzi via fontanili,11435,24,45.442789320973,9.18796014444499
B79,v.le toscana via castelbarco,11439,25,45.4461763045782,9.18764812476074
B79,castelbarco,11457,26,45.4492752463355,9.18618415323479
B79,porta lodovica,11459,27,45.4515662153166,9.18659209744286
B79,porta lodovica,11466,28,45.4513812466108,9.18817607964431
B783,bicocca m5,17152,1,45.5161905641282,9.20571750046143
B783,bicocca m5,12004,2,45.5154855518772,9.20488954047317
B783,v.le suzzani v.le esperia,12006,3,45.5167255259378,9.20360856080211
B783,v.le suzzani via da bussero,12009,4,45.5190595010083,9.20492951936786
B783,v.le gramsci fronte civ.8 (bresso),17595,5,45.5337213123814,9.19859155794303
B783,via 25 aprile via matteotti (bresso),16842,6,45.5365142799626,9.19829846670507
B783,via grandi via don sturzo (bresso),15465,7,45.5417852242643,9.19787249215094
B783,"via don minzoni, 52 (bresso)",15466,8,45.5435972024534,9.19630348867892
B783,bresso (don minzoni),14087,9,45.5425602333992,9.18964353997266
B78,via govone,11007,1,45.4925647314605,9.16290016726909
B78,via govone via p. eugenio,11318,2,45.4907117316802,9.16545214454742
B78,via mac mahon via p. eugenio,11011,3,45.4896697373466,9.16419817062086
B78,p.za caneva,11000,4,45.4882407675218,9.16207824361658
B78,c.so sempione via e. filiberto,10994,5,45.486408739662,9.15920027110569
B78,p.le damiano chiesa,10940,6,45.4837368116336,9.1551303582082
B78,via gattamelata (fieramilanocity),10938,7,45.4829277435586,9.15387635999866
B78,portello m5,10936,8,45.4814637886048,9.15166136456452
B78,via silva via albani,10669,9,45.4796178341181,9.1488394311159
B78,via silva via m.te rosa,17532,10,45.4777857916412,9.14599149976265
B78,lotto (fieramilanocity) m1 m5,17533,11,45.4789458102243,9.14422548839709
B78,p.le lotto via diomede,10647,12,45.480526788701,9.14253748598146
B78,via diomede via cassino,10637,13,45.4827507495786,9.13800656386463
B78,via diomede via arenzano,10436,14,45.4836777068557,9.13424756807936
B78,via diomede via sant'elia,10434,15,45.4844917042856,9.13094666622836
B78,via diomede via trenno,10430,16,45.485119683317,9.12844561602836
B78,via ippodromo via diomede,10276,17,45.4859866661988,9.12414168486918
B78,via ippodromo via patroclo,10274,18,45.4851206563944,9.11926478513117
B78,via patroclo via bisanzio,10273,19,45.4834136555922,9.11807782753113
B78,via tesio via patroclo,10272,20,45.4808817293245,9.11879383118578
B78,via tesio via harar,10269,21,45.4772967427822,9.11727285106865
B78,san siro stadio m5,17531,22,45.4760767820507,9.11822987448886
B78,via s. giusto via dessie',16999,23,45.4754117940552,9.12074881125241
B78,via novara via s. giusto,10259,24,45.4723447943879,9.11818580270933
B78,ospedale san carlo,10255,25,45.4708072385097,9.11477481076167
B78,via pio ii (ospedale san carlo),10247,26,45.4702238131604,9.11254189959866
B78,marx,18507,27,45.4721509698884,9.11150368010447
B78,via marx via cannizzaro,10089,28,45.4743127533015,9.10930195202006
B78,via l. zoja via f.lli zoia,10082,29,45.4741487554394,9.10742797263828
B78,"via milly, 9",10080,30,45.4733607658048,9.1062659539377
B78,via milly via marchesi,10077,31,45.4717577955547,9.10658903481309
B78,via marchesi via f.lli zoia,10087,32,45.4714767759731,9.10866093789207
B78,via pio ii via f.lli zoia,10086,33,45.470223802226,9.10939392060282
B78,via venegoni via pio ii,10240,34,45.4684408357866,9.11143896172395
B78,via venegoni via olivieri,14184,35,45.465426864117,9.11300294137717
B78,"via olivieri, 12",10224,36,45.4633569173117,9.11411394146885
B78,via olivieri via f.ze armate,10228,37,45.4613599283621,9.1151069818209
B78,bisceglie m1 (via lucca),10209,38,45.4557529906773,9.11237303473569
B78,"via mengoni, 11",17739,39,45.4506410108786,9.10182413978647
B78,"via mengoni, 9",17740,40,45.4517889957239,9.10357215084092
B78,mengoni,17975,41,45.4538975723535,9.10781232289149
B78,bisceglie m1,10211,42,45.4552419968318,9.11214601394273
B77,via unica poasco via don milani (s.donato),15639,1,45.4013179470775,9.23042084496243
B77,via unica poasco via pertini (s.donato),15640,2,45.4044618681712,9.22909489028631
B77,cimitero di chiaravalle,12321,3,45.4122928268584,9.2293727845321
B77,"via s. arialdo, 90",12323,4,45.4144678125281,9.2327727477844
B77,abbazia di chiaravalle,12593,5,45.4170087470203,9.23606667911035
B77,via s. arialdo via s. bernardo,12595,6,45.4184097249891,9.23744970790325
B77,"via s. dionigi, 121",12325,7,45.4251146740785,9.23164873040075
B77,"via s. dionigi, 99",12324,8,45.4290115772228,9.2274267551993
B77,via ravenna v.le omero,12334,9,45.4321815913879,9.22367478405093
B77,via ravenna via barabino,12330,10,45.4331885642389,9.2222817993211
B77,via cinquecento via ravenna,12328,11,45.4351315393247,9.22052679262724
B77,p.le gabriele rosa,12332,12,45.4369625099885,9.22339374836648
B77,v.le martini,12350,13,45.4389234843978,9.22425574895125
B77,corvetto m3,12344,14,45.4409154387767,9.22261970554695
B77,c.so lodi via sacconi,12345,15,45.4417064102219,9.22103975661315
B77,brenta m3,17741,16,45.4428740698109,9.21864231611921
B77,brenta m3,12039,17,45.4439333834125,9.21645176937589
B77,c.so lodi via scrivia,12038,18,45.444846374369,9.21456980347967
B77,p.ta romana fs,12034,19,45.4457993641273,9.21301185776064
B77,lodi m3,12032,20,45.4469543491495,9.21112487610565
B76,gozzoli,18095,1,45.4472307405703,9.098619894586
B76,bisceglie m1,10210,2,45.455038987859,9.1125389913326
B76,bisceglie m1,17538,3,45.4548039688574,9.11216903570047
B75,cascina gobba m2,12900,1,45.5114597752439,9.26055381963985
B75,via padova via rizzoli,12896,2,45.5114217822845,9.25833886622878
B75,"via rizzoli, 79",12895,3,45.5086968047919,9.2555149413428
B75,"via rizzoli, 45",12889,4,45.506897824267,9.25312595458801
B75,crescenzago m2,12877,5,45.5042048444337,9.24968404376513
B75,via civitavecchia via orbetello,12781,6,45.5021218082694,9.24696207427162
B75,cimiano m2,12771,7,45.4991768719127,9.24142315566008
B75,via monfalcone via marazzani,12763,8,45.4971168789754,9.23877623814641
B75,via monfalcone via sangro,12738,9,45.4943429280203,9.23737624812256
B75,p.le udine via carnia,12731,10,45.4917969452569,9.23665829211462
B75,via feltre via crescenzago,12740,11,45.4911859712914,9.24075624462352
B75,via crescenzago via pisani dossi,12741,12,45.4875779498548,9.24218921401937
B75,p.za gobetti,12510,13,45.4857419467365,9.23323736917948
B75,stazione lambrate m2,12700,14,45.4851789572366,9.23555732588298
B75,stazione lambrate m2,12706,15,45.4841740260103,9.23615032159276
B75,via viotti via bassini,12713,16,45.4828260602499,9.23764132646042
B75,via c. flaminio via saccardo,12716,17,45.4814770591835,9.24115926138055
B75,via c. flaminio via dei canzi,12719,18,45.4801240774008,9.24235325418202
B75,via bistolfi via s. faustino,12724,19,45.4773410677118,9.24308230211547
B75,via trentacoste via bistolfi,12686,20,45.4738951794702,9.24472531273764
B75,via pitteri,12856,21,45.4747251498313,9.24821520530675
B74,p.za miani,10801,1,45.4380202954436,9.15501658965326
B74,v.le faenza p.za miani,10760,2,45.4372952820799,9.15254664204489
B74,v.le faenza via taranto,10505,3,45.4372263294421,9.15017664848411
B74,v.le faenza via campari,10501,4,45.4371523098194,9.14778967325518
B74,q.re teramo,17474,5,45.4353292995385,9.14509770416118
B74,via mazzolari via campari,17475,6,45.4337313481126,9.14537773566384
B74,via mazzolari via barona,17476,7,45.4315403134144,9.14798368446489
B74,via de pretis via mazzolari,17477,8,45.4297283639605,9.15011369252298
B74,"via de pretis, 55",10507,9,45.4284043540071,9.15072870637295
B74,"via de pretis, 83",10756,10,45.428963435237,9.15328165221768
B74,"via de pretis, 100",10771,11,45.429439364948,9.15723760908504
B74,via s. vigilio via de pretis,10778,12,45.4289644045065,9.15955357523929
B74,via s. vigilio via di rudini',10787,13,45.4319544086075,9.16096855422899
B74,via s. vigilio (pronto soccorso),16071,14,45.4338023878775,9.16254951453768
B74,via s. vigilio via s. paolino,10792,15,45.4346873779451,9.16382848935411
B74,famagosta m2,13771,16,45.4363883592809,9.168735413084
B73,duomo m1 m3,16929,1,45.4617001553105,9.1893220581151
B73,via larga,11794,2,45.4627781401537,9.19456395380851
B73,l.go augusto,11798,3,45.462537160389,9.19785491803363
B73,palazzo di giustizia,11816,4,45.4623001537483,9.20077685716806
B73,c.so p.ta vittoria (camera del lavoro),11823,5,45.4622751421515,9.20382684463351
B73,p.za cinque giornate,12094,6,45.4622111782892,9.20875575639384
B73,p.za s. maria del suffragio,12099,7,45.4621901552634,9.21104178227657
B73,via cadore c.so ventidue marzo,12108,8,45.4621872019833,9.21427674341147
B73,p.za emilia,12126,9,45.4621612235296,9.21854265064629
B73,p.za grandi,12390,10,45.4621661853892,9.22106567289266
B73,v.le campania v.le corsica,12392,11,45.4621342092355,9.22346556401549
B73,v.le corsica via lomellina,12402,12,45.4622341958362,9.22948752608532
B73,v.le corsica via negroli,12407,13,45.4621832164951,9.2319625424855
B73,forlanini,12646,14,45.4620092411579,9.23614845317218
B73,v.le forlanini p.za artigianato,12662,15,45.4619522314315,9.24359336714149
B73,v.le forlanini (tangenziale est),12851,16,45.4618373260941,9.25295524879175
B73,v.le forlanini (aeronautica militare),12853,17,45.4618502896644,9.2577901744172
B73,v.le forlanini via circonvallazione (segrate),12922,18,45.4617373443994,9.27498497832301
B73,aeroporto di linate (segrate),12926,19,45.4617463740258,9.27887492216787
B729,sesto (1 maggio) m1,13634,1,45.5422153442797,9.23902193909082
B729,via m.te grappa v.le casiraghi (sesto s.g.),13636,2,45.5436473480821,9.23450903240754
B729,via m.te grappa via picardi (sesto s.g.),13637,3,45.5452252675909,9.23151806617943
B729,via stalingrado via curiel (cinisello b..),13638,4,45.5483322491419,9.22865407500949
B729,via stalingrado via s.antonio (cinisello b..),13639,5,45.5520612263977,9.22695508755907
B729,via s.antonio p.za italia(cinisello b..),13640,6,45.5521941964937,9.22276310037543
B729,gorky monfalcone (cinisello b.),15919,7,45.5515242065122,9.2180391332388
B729,via monfalcone via manzoni (cinisello b..),14601,8,45.5510001702713,9.21408617664646
B729,via trieste via monfalcone (cinisello b.),14602,9,45.5508241625073,9.21173021158841
B729,via dante via trieste (cinisello b..),14604,10,45.5531181580759,9.21040322597551
B729,via marconi via buonarroti (cinisello b..),14605,11,45.5520841346666,9.2048733062941
B729,via marconi via togliatti (cinisello b..),14896,12,45.551351143817,9.20201035213669
B729,via marconi via toti (cinisello b..),13668,13,45.5503201562256,9.19693840925675
B729,via margherita via marconi (cusano m.no),13669,14,45.5503751292567,9.19505448328847
B729,via dei fiori via edera (cusano m.no),13670,15,45.5498391375668,9.1901295174714
B729,cusano (v.le unione),15920,16,45.5488791177719,9.18683257497946
B729,via marconi via donizetti (cusano m.no),15129,17,45.5475451598123,9.18224661255406
B729,via marconi via manzoni (cusano m.no),15130,18,45.5466981562718,9.17719369711866
B729,via n. sauro via l. da vinci (cormano),15921,19,45.5454101374567,9.16900283955108
B729,via filzi via nenni (cormano),15922,20,45.5447171172581,9.16488585938581
B729,via filzi s.s. 35 (cormano),16810,21,45.5438280783568,9.1588019218988
B729,comasina m3,13312,22,45.5282802917842,9.16345799572781
B729,comasina m3,16811,23,45.5299052575593,9.16295796210409
B728,cinisello (s.eusebio),13647,1,45.5704139666861,9.21247210855562
B728,via cilea via macchiavelli (cinisello b.),13624,2,45.5661449804098,9.21546914645934
B728,via giordano via cimarosa (cinisello b.),13625,3,45.5638170146132,9.2166241274875
B728,via giordano via crisantemi (cinisello b.),13626,4,45.5591591072289,9.21886511904479
B728,v.le rinascita p.za costa (cinisello b.),13627,5,45.556454106753,9.2190431716797
B728,v.le rinascita via casati (cinisello b.),13657,6,45.5538281873404,9.2186681830309
B728,via s.antonio p.za italia(cinisello b..),13630,7,45.5520911684567,9.22284810778828
B728,via stalingrado via s.antonio (cinisello b..),13631,8,45.5515132314157,9.22746610239657
B728,via stalingrado via curiel (cinisello b..),13658,9,45.5482972533293,9.2284680638037
B728,v.le f.testi via dei partigiani (cinisello b.),14600,10,45.5454252928197,9.22375417152418
B728,v.le f.testi via ferri (cinisello b.),13554,11,45.5430573139759,9.22105814675732
B728,parco nord (ist. tecnico)(cinisello b.),13555,12,45.5374823414314,9.21789326479599
B728,via milanese via carducci (sesto s.g.),13603,13,45.5319203763777,9.21755927535061
B728,via milanese via caduti del lavoro (sesto s.g.),14191,14,45.5297424407831,9.21656133912399
B728,v.le sarca via bignami,13604,15,45.5253834654885,9.21406939136203
B728,v.le sarca via chiese,13605,16,45.5213285219151,9.21172341080071
B728,v.le sarca via s. glicerio,13606,17,45.5191435401531,9.21056342263327
B728,v.le sarca via la farina,13607,18,45.5152455869926,9.20837547134035
B728,v.le sarca via pianell,13608,19,45.5080976507425,9.20437159711863
B728,v.le sarca via rabolini,13609,20,45.5048526498475,9.20190864345747
B728,via taramelli p.za a.claudio,16874,21,45.4907438232569,9.19361382749604
B728,via gioia via galvani,11904,22,45.4877058708387,9.19668079205245
B728,stazione centrale m2 m3,16875,23,45.4866238645082,9.20253769170821
B727,sesto (1 maggio) m1,15862,1,45.5424673665744,9.2392179397506
B727,via m.te grappa v.le casiraghi (sesto s.g.),13636,2,45.5436473480821,9.23450903240754
B727,via m.te grappa via picardi (sesto s.g.),13637,3,45.5452252675909,9.23151806617943
B727,v.le f.testi via dei partigiani (cinisello b.),14600,4,45.5454252928197,9.22375417152418
B727,via ferri via gorki (cinisello b.),13659,5,45.5439092947968,9.21969717047849
B727,via gorki v.le f.testi (cinisello b.),15933,6,45.5397723270453,9.21847921331416
B727,parco nord (osp.bassini)(cinisello b.),13660,7,45.5463212143422,9.218285246033
B727,via de sanctis via gozzano (cinisello b.),15857,8,45.5478392382379,9.21950118252795
B727,via s.martino via martinelli (cinisello b.),15859,9,45.5513772098406,9.22194314810408
B727,v.le rinascita via casati (cinisello b.),13656,10,45.5533361611268,9.21873214879396
B727,v.le rinascita p.za costa (cinisello b.),13643,11,45.556155122016,9.21915115079459
B727,via giordano via crisantemi (cinisello b.),13644,12,45.5592671184815,9.21894911342193
B727,monte ortigara (cinisello b.),15860,13,45.5600341012728,9.21440317424069
B727,via m.te ortigara via pasubio (cinisello b.),15863,14,45.5582470932595,9.20683128929057
B727,via m.te ortigara via togliatti (cinisello b.),15864,15,45.5573000843152,9.20110636207865
B727,via xxv aprile via degli olmi (cinisello b.),13666,16,45.5542970989051,9.19891639532277
B727,v.le cooperazione v.le buffoli (cusano m.no),14078,17,45.5528201230112,9.19295348952349
B727,v.le cooperazione via delle rose (cusano m.no),14958,18,45.5521410961827,9.18982149290029
B727,v.le cooperazione via delle gardenie (cusano m.no),14959,19,45.5516191196835,9.18740054608039
B727,v.le matteotti via como (cusano m.no),13685,20,45.5507730945364,9.18412758126451
B727,v.le matteotti via d'azeglio (cusano m.no),13686,21,45.5502660945621,9.18066865629386
B727,p.za trento e trieste (cusano m.no),13687,22,45.5497181207241,9.17669366474082
B727,via zucchi via italia (cusano m.no),13688,23,45.5490051201732,9.17545371546667
B727,stazione cormano-cusano fn,17851,24,45.5457247448326,9.17422511904608
B713,bignami m5,17123,1,45.5263014419989,9.21260037715679
B713,v.le testi (torretta)(sesto s.g.),17124,2,45.5305404188543,9.21472133516588
B713,via milanese via f.lli bandiera (sesto s.g.),14097,3,45.534056369,9.21798925622355
B713,via f.lli bandiera via ferrari (sesto s.g.),14098,4,45.5345873581815,9.222232208069
B713,via f.lli bandiera via matteotti (sesto s.g.),14099,5,45.5346513935064,9.22501518141105
B713,via f.lli bandiera via risorgimento (sesto s.g.),13971,6,45.5346314400217,9.22930812838089
B713,sesto rondo' m1,12588,7,45.5342924103493,9.23159809898884
B713,p.za repubblica (sesto s.g.),13972,8,45.5342674610347,9.23271710817761
B713,via fiorani via savi (sesto s.g.),17128,9,45.5316014225067,9.23305811486222
B713,via marsala via xxiv maggio (sesto s.g.),17129,10,45.5287014947975,9.23436410910827
B713,v.le italia via xxiv maggio (sesto s.g.),17418,11,45.52884648453,9.23828003618163
B713,via pace via ferrara (sesto s.g.),15045,12,45.5281245287454,9.24325201600596
B713,via pace via volontari del sangue (sesto s.g.),15046,13,45.5281395499315,9.24690995756472
B713,via marx via f.lli di dio (sesto s. g.),14021,14,45.526112556674,9.24739698127775
B713,via livorno via f.lli di dio (sesto s.g.),14022,15,45.5253445742238,9.24887891492214
B713,"via livorno, 89 (sesto s.g.)",14023,16,45.5231186003422,9.25063997239725
B713,"via livorno, 236 (sesto s.g.)",14024,17,45.5210396497665,9.25035295521581
B713,via marx via livorno (sesto s.g.),14025,18,45.5219396060592,9.24590596969009
B713,via crescenzago via lombardia (sesto s.g.),14026,19,45.5201576083331,9.24333102325777
B713,via crescenzago (cimitero) (sesto s.g.),17419,20,45.5227515584744,9.24111603854262
B713,v.le rimembranze via f.lli di dio (sesto s.g.),17420,21,45.5237805413359,9.24103405393369
B713,sesto s.g. (v. rimembranze),17416,22,45.527674534126,9.24096803002614
B712,cinisello (via musu),15865,1,45.5586230605338,9.2130492096504
B712,monte ortigara (cinisello b.),15853,2,45.5599700936248,9.21455914884245
B712,via copernico via u.giordano (cinisello b.),16095,3,45.5611050669509,9.21908213718876
B712,via copernico via lincoln (cinisello b.),16097,4,45.5600811029984,9.2263049752569
B712,"via de vizzi, 12 (cinisello b.)",16099,5,45.5601071055926,9.22911098174999
B712,via brodolini via de vizzi (cinisello b.),16101,6,45.5589881277475,9.23294392928744
B712,via lavoratori via brodolini (cinisello b.),16103,7,45.5573701811286,9.23393695833603
B712,via lavoratori via pacinotti (cinisello b.),16105,8,45.5576651417573,9.23714587383922
B712,via castaldi (centro comm.)(cinisello b.),16107,9,45.5569751931119,9.24321786683159
B712,biagi ,19087,10,45.5563009677013,9.24931401740783
B712,via valtellina via f.lli bandiera (cinisello b.),16111,11,45.556593217203,9.25227572243712
B712,v.le gramsci cavalc. vulcano (sesto s.g.),16112,12,45.5513572628013,9.24737381963474
B712,l.go levrino (sesto s.g.),16114,13,45.549077258095,9.24512586601283
B712,v.le casiraghi v.le testi (sesto s.g.),16970,14,45.5484822539392,9.23677898714388
B712,via bellini v.le casiraghi (sesto s.g.),14033,15,45.5463562649097,9.23690095466483
B712,via bellini via boccaccio (sesto s.g.),15184,16,45.5453592874752,9.23967991711507
B712,sesto (1 maggio) m1,13634,17,45.5422153442797,9.23902193909082
B71,via voltri via ovada,10770,1,45.4361263245811,9.15449961399295
B71,via voltri via di rudini',10763,2,45.4343803776922,9.15446159856847
B71,ospedale san paolo,10781,3,45.4329843717687,9.15886656091789
B71,via s. vigilio via di rudini',10786,4,45.431883341756,9.16081955188976
B71,via de nicola via s. vigilio,10780,5,45.4306843840733,9.15846058749134
B71,via de nicola via voltri,10773,6,45.4312903592528,9.15633961159111
B71,via de pretis via boffalora,10758,7,45.4309103921102,9.15213668967434
B71,via de pretis via mazzolari,10503,8,45.4298984017732,9.15077067680124
B71,"via de pretis, 55",10507,9,45.4284043540071,9.15072870637295
B71,via cascina bianca via de pretis,10754,10,45.4278163716126,9.15232467470784
B71,"via cascina bianca, 9",10753,11,45.4264064248323,9.15369665079254
B71,via cascina bianca via de finetti,10750,12,45.4250104273771,9.15756064081196
B71,via s. paolino via danusso,10784,13,45.4281493904474,9.15975857922376
B71,"via s. paolino, 16",10791,14,45.4305063831281,9.16376049375939
B71,via s. paolino via s. vigilio,10795,15,45.434465387583,9.1647494745557
B71,famagosta m2,17085,16,45.4372213207909,9.16955038875835
B709,cologno sud m2,17107,1,45.5197447059487,9.27397861254615
B709,cologno sud m2,14144,2,45.5206136790684,9.27505066773732
B709,via milano via grandi (cologno m.se),14155,3,45.5221466717267,9.27162765561034
B709,via milano via ingegnoli (cologno m.se),14156,4,45.5186287099371,9.26735372898179
B709,via ingegnoli via francia (cologno m.se),14157,5,45.5211796672558,9.26591075473025
B709,v.le europa via belgio (cologno m.se),14158,6,45.5230186383895,9.26465374797535
B709,v.le europa via cavallotti (cologno m.se),14159,7,45.5268786196948,9.26575573183026
B709,via buonarroti v.le spagna (cologno m.se),17136,8,45.532818528443,9.26752970015275
B709,v.le spagna via barcellona (sesto s.g.),14165,9,45.5380804821748,9.26535669849572
B709,"v.le spagna, 141 (cologno m.se)",14166,10,45.5418114168135,9.26507467302241
B709,via garibaldi via vitt.veneto (cologno m.se),14167,11,45.5461403653765,9.26556463977063
B709,cologno (s.maurizio),15814,12,45.5478353596333,9.26565659250821
B708,sesto rondo' m1,12589,1,45.5343154091671,9.23103908590456
B708,via roma via firenze (sesto s.g.),15214,2,45.5327194062654,9.23017311816252
B708,carducci,18485,3,45.5308174208447,9.22659115854716
B708,via carducci via s.f. d'assisi (sesto s.g.),17671,4,45.5314577873008,9.22171890544243
B708,parco nord clerici (sesto s.g.),14121,5,45.5334923974569,9.21383032506482
B708,"via clerici, 370 (bresso)",14122,6,45.5331093399755,9.20784743159692
B708,v.le gramsci fronte civ.8 (bresso),17595,7,45.5337213123814,9.19859155794303
B708,via 25 aprile via matteotti (bresso),16842,8,45.5365142799626,9.19829846670507
B708,via grandi via don sturzo (bresso),15465,9,45.5417852242643,9.19787249215094
B708,"via don minzoni, 52 (bresso)",15466,10,45.5435972024534,9.19630348867892
B708,bresso (don minzoni),14087,11,45.5425602333992,9.18964353997266
B707,cologno (v. giordano),17118,1,45.5420424507018,9.27583651020482
B707,via mozart via campania (cologno m.se),17141,2,45.5404494861405,9.28208541447607
B707,via mozart via imbersago (cologno m.se),17119,3,45.539982493432,9.28658036670297
B707,via porta via guzzina (cologno m.se),17115,4,45.5413094748563,9.29116634996785
B707,via imbersago via taormina (cologno m.se),17116,5,45.5412755032833,9.28830639007569
B707,via roma (tang. est) (cologno m.se),17120,6,45.5375465419372,9.28557440954917
B707,c.so roma via boccaccio (cologno m.se),15211,7,45.5347775738715,9.28349341786222
B707,via roma via 4 strade (cologno m.se),17121,8,45.5319036062565,9.28135048638015
B707,via milano via s.margherita (cologno m.se),17122,9,45.5274686279245,9.2775175560327
B707,via merano via giovanni xxiii (cologno m.se),17172,10,45.522741680034,9.27334064877126
B707,cologno sud m2,14144,11,45.5206136790684,9.27505066773732
B707,via val di stava via trento (cologno m.se),14901,12,45.5240506592842,9.27914558178537
B707,via val di stava via 25 aprile (cologno m.se),14902,13,45.5253506430072,9.28143153006653
B707,via vimodrone (cologno m.se),14565,14,45.52462067513,9.28592347985454
B707,via galvani (cologno m.se),14566,15,45.5243896962241,9.28756048010337
B707,via carducci via pirandello (cologno m.se),13875,16,45.5259416921154,9.29166238223736
B707,via longarone (cimitero)(cologno m.se),15574,17,45.5273766863656,9.29368534894927
B707,via chioggia (cologno m.se),13815,18,45.5288486655884,9.29417734079685
B707,via ginestrino via micca (cologno m.se),13816,19,45.5302056545379,9.29438035467185
B707,via corridoni (cologno m.se),14550,20,45.5312676352343,9.29250034947824
B707,via l. da vinci (scuole) (cologno m.se),13822,21,45.5345546194613,9.29349834651865
B707,cologno nord m2,13823,22,45.5352165622825,9.2908233822014
B707,cologno nord m2,14551,23,45.534318570209,9.29081939255794
B707,cologno nord m2,15216,24,45.5355045348245,9.29200937585957
B705,cormano (via zara),16587,1,45.5498040570991,9.15388899969538
B705,via figini via m.te rosa (cormano),16588,2,45.5484150790807,9.15396993929473
B705,via 24 maggio via po (cormano),14062,3,45.5489680790768,9.16059289479691
B705,via buonarroti via l. da vinci (cormano),16589,4,45.5520140164642,9.16754879633719
B705,via l. da vinci via 24 maggio (cormano),14593,5,45.5495690677526,9.16856482902635
B705,via c. battisti via n. sauro (cormano),15904,6,45.5459421511989,9.17126181368941
B705,via liberta' via negri (cormano),14082,7,45.5433721397189,9.17208579679889
B705,via gramsci via molinazzo (cormano),14607,8,45.5406091698854,9.16807985962977
B705,via gramsci via donizzetti (cormano),14608,9,45.5388291625909,9.16575087489949
B705,via gramsci s.s.35 (cormano),14609,10,45.5382431622473,9.16080291988136
B705,comasina m3,13312,11,45.5282802917842,9.16345799572781
B705,comasina m3,16797,12,45.5295822972439,9.16300196533933
B702,via picasso via s.eusebio (cinisello b.),15852,1,45.5697859475376,9.20893016655303
B702,via brunelleschi via bernini (cinisello b.),15939,2,45.5684439521554,9.20668519666479
B702,via risorgimento via zandonai (cinisello b.),13962,3,45.567248960823,9.21042218120909
B702,via risorgimento via l. da vinci (cinisello b.),13963,4,45.5647060217927,9.21147218702371
B702,via risorgimento via guardi (cinisello b.),13964,5,45.5616380532237,9.21288418295085
B702,monte ortigara (cinisello b.),15853,6,45.5599700936248,9.21455914884245
B702,via giordano via crisantemi (cinisello b.),13626,7,45.5591591072289,9.21886511904479
B702,v.le rinascita p.za costa (cinisello b.),13627,8,45.556454106753,9.2190431716797
B702,v.le rinascita via casati (cinisello b.),13657,9,45.5538281873404,9.2186681830309
B702,via de sanctis via gozzano (cinisello b.),15910,10,45.5483542192867,9.22009021313193
B702,parco nord (osp.bassini)(cinisello b.),15900,11,45.5455392604189,9.21823817551568
B702,via ferri via gorki (cinisello b.),13683,12,45.543787255459,9.21927919625685
B702,via saint denis via leopardi (sesto s.g.),15122,13,45.5396783057335,9.22273814443043
B702,via magenta (ospedale) (sesto s.g.),15957,14,45.5373283968795,9.22558318408716
B702,via matteotti via leopardi (sesto s.g.),14029,15,45.538876367737,9.22772310101323
B702,via matteotti via sardegna (sesto s.g.),14030,16,45.540058343821,9.2286031042851
B702,via matteotti via l. da vinci (sesto s.g.),14031,17,45.5416943178251,9.22984807588218
B702,via matteotti via picardi (sesto s.g.),14032,18,45.5444612651247,9.23180805932388
B702,via m.te grappa v.le casiraghi (sesto s.g.),13524,19,45.5431143108282,9.23521299532815
B702,sesto (1 maggio) m1,13600,20,45.5412833720776,9.23770397320147
B702,via g. d'arco via acciaierie (sesto s.g.),13932,21,45.5378513887193,9.23830301560228
B702,via g. d'arco via volta (sesto s.g.),13933,22,45.5367263849331,9.24044998566178
B702,via g. d'arco v.le italia (sesto s.g.),13934,23,45.5348234682825,9.24202897855048
B702,v.le italia via cantore (sesto s.g.),13853,24,45.5344434504664,9.24320497454435
B702,via cantore v.le edison (sesto s.g.),13935,25,45.5328034756808,9.24826190482702
B702,via grandi via pisa (sesto s.g.),13936,26,45.5309445125738,9.25180587389325
B702,via di vittorio via martesana (sesto s.g.),13937,27,45.5265036017099,9.2557748501297
B702,via di vittorio (tang. est) (sesto s.g.),13938,28,45.5272305764552,9.26138572477959
B702,via di vittorio v.le europa (sesto s.g.),13939,29,45.5274836026203,9.26371471361741
B702,via cavallotti via emilia (cologno m.se),13940,30,45.5285235983151,9.27194659933643
B702,p.za castello via indipendenza (cologno m.se),13941,31,45.5290976211418,9.27643358216175
B702,cologno centro m2,13942,32,45.5280786244726,9.28281849640212
B702,via dalla chiesa via dall'acqua (cologno m.se),14999,33,45.5288856222965,9.28400748874653
B702,via dalla chiesa (piscina comunale) (cologno m.se),17004,34,45.5320306032249,9.28815740011624
B702,cologno nord m2,14551,35,45.534318570209,9.29081939255794
B702,cologno nord m2,13880,36,45.5354335599235,9.29196232772392
B701,cologno nord m2,15216,1,45.5355045348245,9.29200937585957
B701,cologno nord m2,13823,2,45.5352165622825,9.2908233822014
B701,c.so roma via boccaccio (cologno m.se),15211,3,45.5347775738715,9.28349341786222
B701,via 4 strade via petrarca (cologno m.se),17287,4,45.5321135686171,9.27988052657219
B701,via galilei via 4 strade (cologno m.se),13826,5,45.5318405633981,9.27651754844329
B701,v.le lombardia via sanzio (cologno m.se),13827,6,45.5354525082822,9.274911577314
B701,v.le lombardia v.le toscana (cologno m.se),13828,7,45.5371435093149,9.27495951909058
B701,v.le lombardia via don sturzo (cologno m.se),15242,8,45.5386154836445,9.27501854381695
B701,v.le lombardia via respighi (cologno m.se),13830,9,45.5410274604244,9.27512556157859
B701,v.le lombardia via piacenza (cologno m.se),13831,10,45.5435114132816,9.27520251869707
B701,via repubblica v.le lombardia (cologno m.se),13832,11,45.5459223938587,9.27383047296082
B701,via tagliabue via repubblica (cologno m.se),13833,12,45.5459704056685,9.27097754922584
B701,via repubblica via buozzi (cologno m.se),13834,13,45.547142383715,9.26936156222383
B701,cologno (s.maurizio),13879,14,45.5485543844048,9.26792359026332
B700,sesto s.g. (cimitero),14028,1,45.5345405024085,9.25829475061928
B700,via marzabotto via forli' (sesto s.g.),17412,2,45.5337454856723,9.25381782689481
B700,via marzabotto v.le edison (sesto s.g.),17413,3,45.5343544916608,9.25093388132955
B700,via cantore v.le edison (sesto s.g.),13935,4,45.5328034756808,9.24826190482702
B700,via grandi via pisa (sesto s.g.),13936,5,45.5309445125738,9.25180587389325
B700,via volontari del sangue via maffi (sesto s.g.),14019,6,45.5294465248361,9.2521718694099
B700,via pace via volontari del sangue (sesto s.g.),17414,7,45.5282215375657,9.24832192526321
B700,via marx v.le edison (sesto s.g.),15029,8,45.5316974835276,9.24576795025453
B700,v.le italia via rimembranze (sesto s.g.),13845,9,45.5312294918489,9.23945702790659
B700,v.le italia via xxiv maggio (sesto s.g.),13846,10,45.5293835177553,9.23765502298943
B700,v.le italia via oberdan (sesto s.g.),17415,11,45.5263875493774,9.23256813483152
B700,v.le italia (sesto marelli m1),17106,12,45.5249195143073,9.22947616455745
B700,via marelli via xxiv maggio (sesto s.g.),13992,13,45.5277124578389,9.22930418411471
B700,via marelli via cavallotti (sesto s.g.),13993,14,45.5295934286303,9.22983713642606
B700,p.za repubblica (sesto s.g.),13994,15,45.5335054409503,9.23251711275405
B700,via fante d'italia via c. da sesto (sesto s.g.),13995,16,45.5350104527136,9.23631501730411
B700,via garibaldi via fante d'italia (sesto s.g.),15027,17,45.5354813966245,9.23522003038055
B700,via rovani v.le casiraghi (sesto s.g.),14113,18,45.5360003582194,9.23005810894312
B700,via rovani via po (sesto s.g.),14117,19,45.53596536759,9.22712214458722
B700,via matteotti (ospedale) (sesto s.g.),13999,20,45.5361793969745,9.22570015961466
B700,via matteotti via leopardi (sesto s.g.),14029,21,45.538876367737,9.22772310101323
B700,via matteotti via sardegna (sesto s.g.),14030,22,45.540058343821,9.2286031042851
B700,via matteotti via l. da vinci (sesto s.g.),14031,23,45.5416943178251,9.22984807588218
B700,via matteotti via picardi (sesto s.g.),14032,24,45.5444612651247,9.23180805932388
B700,via m.te grappa v.le casiraghi (sesto s.g.),13495,25,45.5439062756603,9.23511499457258
B700,via bellini v.le casiraghi (sesto s.g.),14033,26,45.5463562649097,9.23690095466483
B700,via bellini via boccaccio (sesto s.g.),15184,27,45.5453592874752,9.23967991711507
B700,sesto (1 maggio) m1,14013,28,45.5420203310662,9.23895594268866
B70,cimitero di bruzzano,11697,1,45.5289173508477,9.18127072841541
B70,via acerbi via martinazzoli,11393,2,45.5283162944782,9.17516584436128
B70,via acerbi via capsoni,11391,3,45.5287373260292,9.17348481809655
B70,q.re bruzzano,11390,4,45.5265773591786,9.17338283716188
B70,via senna via fontanelli,11389,5,45.5250563623706,9.17359786242895
B70,via casarsa p.za fortunato,11383,6,45.524334383239,9.17460585273878
B70,ospedale galeazzi,11381,7,45.5226153895678,9.17414687966923
B70,via da seregno via astesani,11372,8,45.5202303992686,9.17023995968123
B70,via astesani v.le affori,11374,9,45.5179004366703,9.1708569298921
B70,via astesani via zanoli,11377,10,45.5162464533815,9.17195796628664
B70,p. rossi - armellini,17952,11,45.5150185995254,9.17276398436877
B70,p.rossi,17978,12,45.5127417897768,9.17439209672293
B70,rossi,18129,13,45.5104022867461,9.17600560898488
B70,rossi,18130,14,45.5083750562341,9.17742813972976
B70,via p. rossi via trevi,11368,15,45.5067445545969,9.1786049111543
B70,dergano m3,16837,16,45.5047176229583,9.18000789921947
B70,imbonati - bovio,17954,17,45.5020366445305,9.1818437483142
B70,via imbonati via m.te s. genesio,11648,18,45.5000546764137,9.1832598664273
B70,maciachini m3,11649,19,45.4977206977005,9.18478490012204
B70,via lario via murat,17359,20,45.495593722608,9.19178881325823
B70,zara m3 - m5,18518,21,45.493494640649,9.19287888946618
B70,via farini v.le stelvio,15531,22,45.4946317410612,9.18564185760443
B70,maciachini m3,15598,23,45.4979597206209,9.18459089993747
B69,p.za firenze,13778,1,45.4883527173935,9.15711026156442
B69,p.za firenze,10989,2,45.4884697456722,9.15636130030465
B69,v.le certosa v.le serra,10966,3,45.4905696752708,9.15079333521269
B69,p.le accursio,10690,4,45.492153627786,9.14736737144018
B69,via gallarate via somalia,10677,5,45.4936956328788,9.14221043155206
B69,via gallarate via aniene,10674,6,45.4945855800059,9.1393614727668
B69,via gallarate via tibullo,10465,7,45.496405573299,9.13359055766318
B69,v.le ghisallo via gallarate,10461,8,45.4974225432153,9.1297645599292
B69,p.za kennedy,10443,9,45.494709575191,9.12956558094105
B69,via croce via sant'elia,10442,10,45.4930126055237,9.12823861654647
B69,via croce via uruguay,10438,11,45.4934425793449,9.12375667070785
B69,uruguay m1,10291,12,45.4935045600791,9.12044569209477
B69,via omodeo via cechov,10285,13,45.4925435664085,9.11792673050967
B69,via cechov via betti,10283,14,45.4930505476624,9.11491778769328
B69,"via betti, 44",10280,15,45.4925685759651,9.11123184620232
B69,"via betti, 99",10277,16,45.4943745467715,9.10921082514872
B69,bonola m1,10294,17,45.4961605217144,9.11081182811507
B69,via cilea via bacchelli,10117,18,45.4964835147265,9.10648982681465
B69,"via cilea, 70",10108,19,45.4959155049844,9.102805899049
B69,"via cilea, 106",10105,20,45.4970064843177,9.1008039040758
B69,via cilea via fichera,10102,21,45.4993984460658,9.09773391368972
B69,"via cilea, 120",10191,22,45.50214240921,9.09457601039172
B69,via cilea (motorizzazione civile),10100,23,45.5039553634745,9.0950399926843
B69,molino dorino m1,10189,24,45.5050953544743,9.09307801896837
B68,bonola m1,15305,1,45.496565504282,9.11075678888146
B68,via quarenghi (centro commerciale),10296,2,45.4969215154208,9.11420077867115
B68,"via uruguay, 34",10297,3,45.4971525270876,9.11710169699885
B68,via uruguay via kant,10299,4,45.4968795497747,9.12025270754021
B68,via uruguay via sem benelli,10311,5,45.4957965504841,9.12293068944113
B68,via uruguay via quarenghi,10440,6,45.4939095830328,9.12410965320072
B68,uruguay m1,10291,7,45.4935045600791,9.12044569209477
B68,via omodeo via cechov,10285,8,45.4925435664085,9.11792673050967
B68,via cechov via omodeo,15302,9,45.49139157936,9.11789673680376
B68,via cechov via natta,15323,10,45.4893286161861,9.11978270464365
B68,lampugnano m1,15089,11,45.4885286519403,9.12660569055264
B68,via terzaghi via sant'elia,10444,12,45.4871516853136,9.13089456454505
B68,qt8 m1,10638,13,45.4858337182545,9.13749754865091
B68,v.le salmoiraghi via montichiari,10641,14,45.4844317010997,9.14009052847284
B68,p.za stuparich,10648,15,45.4835197224908,9.1417515309807
B68,via albani p.za stuparich,10656,16,45.4824777640177,9.14406048542762
B68,via albani via vigliani,10660,17,45.4813147757641,9.14558144454891
B68,via silva via albani,10667,18,45.479425846729,9.14809841248349
B68,via silva via m.te rosa,17396,19,45.4784278204682,9.14697046570744
B68,via m.te rosa via pagliano,16707,20,45.4761458278267,9.14766946396668
B68,amendola (fieramilanocity) m1,16708,21,45.4744018739554,9.1499144333958
B68,p.le giulio cesare,10909,22,45.4734808739105,9.15464636977837
B68,via rossetti l.go camus,10918,23,45.4736388658075,9.16049329536731
B68,via rossetti via pallavicino,10924,24,45.4720449402078,9.1625553250328
B68,via pagano via mascheroni,10928,25,45.4708119761486,9.16422026274434
B68,via ariosto,11247,26,45.4697929603568,9.16556727711544
B68,conciliazione m1,11250,27,45.4680770246789,9.16634730337611
B68,p.le baracca,11209,28,45.4654320517298,9.16543428625793
B68,v.le di p.ta vercellina via s. vittore,11207,29,45.4637630715511,9.16489136272354
B68,p.le aquileia,10887,30,45.4613780439009,9.16210836875188
B68,p.za vesuvio,10876,31,45.4598970233914,9.15914040941263
B68,via foppa via california,10026,32,45.4576663268025,9.16100178078131
B68,p.za del rosario,15090,33,45.4557501168194,9.16227140803918
B68,via bergognone,10858,34,45.4528281240138,9.16422137204435
B67,via scanini,10172,1,45.4696757530138,9.08962622433343
B67,via diotti,10169,2,45.4690967637279,9.08706723924192
B67,via q.to romano via budrio,10168,3,45.4677568018671,9.08470427667528
B67,via budrio via frigerio,15829,4,45.4672987622683,9.08373929053361
B67,via frigerio via amantea,10142,5,45.4655418140517,9.08426527497488
B67,cimitero di baggio,13806,6,45.4642897636183,9.08493332480899
B67,via val d'intelvi via cusago,15827,7,45.4618058356496,9.08659233414965
B67,via mosca via val d'intelvi,15828,8,45.4588658648466,9.08873533739412
B67,via cabella via gozzoli,10149,9,45.4583598854209,9.09066928133827
B67,via cabella via da rosciate,10155,10,45.4589169103058,9.09247023839262
B67,via cabella,19597,11,45.4597702549495,9.09539177605405
B67,via f.ze armate via f.lli di dio,10059,12,45.4600058829341,9.09842721053262
B67,via f.ze armate via cividale,10063,13,45.4595489082605,9.1009911766427
B67,via f.ze armate via nikolajevka,10066,14,45.4598229157654,9.10590604244162
B67,via f.ze armate via sella nuova,10070,15,45.4604809196405,9.10977203289996
B67,via f.ze armate via osteno,10227,16,45.4602159127412,9.11429895193753
B67,via f.ze armate via olivieri,10230,17,45.460654912209,9.11657195494444
B67,via f.ze armate via saint bon,10234,18,45.4612019287653,9.11938488192908
B67,via f.ze armate via labus,12967,19,45.4623519341457,9.12453484634801
B67,via primaticcio via f.ze armate,10373,20,45.4628439584776,9.12681077018223
B67,via f.ze armate p.za bettini,10384,21,45.4630179722605,9.13256473683422
B67,via f.ze armate v.le pisa,10386,22,45.4632249576297,9.13590668000366
B67,bande nere m1,10387,23,45.4623309876943,9.13659266946253
B67,p.le bande nere v.le c. da forli',10569,24,45.4607010014252,9.13909665079809
B67,v.le c. da forli' via marostica,10575,25,45.4602340092247,9.14185462909706
B67,v.le c. da forli' via fezzan,10580,26,45.4595140370155,9.14573461090563
B67,p.le tripoli,10593,27,45.4597590518793,9.14884456182291
B67,via sardegna p.le tripoli,10601,28,45.4611530002559,9.15055153429236
B67,p.za sicilia,10861,29,45.4635120359489,9.15252245513916
B67,p.za piemonte,10869,30,45.4655829484987,9.15423743353174
B67,wagner m1,10910,31,45.4679109833153,9.1563894357424
B67,pagano m1,10916,32,45.4683659627235,9.15993135245134
B67,via g. d'arezzo,12936,33,45.4680899418049,9.16375529601781
B67,conciliazione m1,11243,34,45.4673689944811,9.16566230595212
B67,p.le baracca,11211,35,45.4667740110917,9.1651523384651
B66,linate (paese),12920,1,45.4465175269428,9.27098914632615
B66,via archimede via pascoli (peschiera b.),12917,2,45.4447345372813,9.26943016812723
B66,via vittorini via umiliati,12915,3,45.4444565209141,9.26535914070961
B66,ospedale monzino,12906,4,45.4445714980969,9.26243023583371
B66,v.le ungheria via mecenate,17697,5,45.4469044669156,9.25459494981988
B66,l.go guerrieri gonzaga,12818,6,45.4452774918012,9.25039534884693
B66,via bonfadini via del liri,12813,7,45.4451224417209,9.24923635099933
B66,via bonfadini via sordello,12619,8,45.4447284837391,9.24610039454811
B66,via bonfadini via salomone,12613,9,45.4443054790458,9.24189447548359
B66,via salomone v.le ungheria,12616,10,45.4463454259426,9.24145545303534
B66,via salomone via dione cassio,12634,11,45.4481684210758,9.24149348428305
B66,via salomone via prudenzio,12635,12,45.4506214358666,9.24150546700554
B66,via salomone via quintiliano,12636,13,45.4523893872441,9.24154843614236
B66,"via salomone, 21",12637,14,45.4542433465125,9.24156145461431
B66,p.za ovidio,12638,15,45.4564673286328,9.2415913972597
B66,p.za cartagine,12627,16,45.4570152889037,9.23946045055054
B66,via lombroso via vismara,12388,17,45.4562583044403,9.23154458110138
B66,v.le molise,15781,18,45.4562222609869,9.22477659839219
B66,via calvairate v.le molise,12371,19,45.4562392551519,9.22294462167897
B66,p.le martini,12367,20,45.4575622549362,9.22049168154038
B66,via arconati,12124,21,45.4581712599382,9.21776165911175
B66,via anfossi,15630,22,45.4586882646888,9.21601368401186
B66,via cadore via anfossi,12104,23,45.4597891911778,9.21423276290796
B66,via cadore,15624,24,45.4616241736535,9.21469572572001
B65,p.ta romana m3,11776,1,45.451415271827,9.20329693970354
B65,p.za buozzi,11785,2,45.4492773247781,9.20680089923822
B65,c.so lodi via friuli,12044,3,45.4481423134121,9.20868084385921
B65,lodi m3,12031,4,45.4467213343642,9.21091479955887
B65,p.ta romana fs,12033,5,45.445524374425,9.2128478053946
B65,c.so lodi via scrivia,12037,6,45.4442873631822,9.21495677373764
B65,brenta m3,12040,7,45.4428934103027,9.21784478379097
B65,brenta m3,12041,8,45.4422964483133,9.21802279175884
B65,p.za bonomelli,12035,9,45.4411464300566,9.21455580027082
B65,v.le ortles via calabiana,17567,10,45.440714436948,9.21022588190246
B65,via calabiana via brembo,17568,11,45.4442813746215,9.20858986864815
B65,l.go isarco,17569,12,45.4445813593326,9.20483695718612
B65,via de angeli via ripamonti,17570,13,45.4433693536604,9.19735908260288
B65,via spadolini via moro,17572,14,45.4431713413387,9.18960213030054
B65,via bazzi via fontanili,11434,15,45.4421703562042,9.18764520123352
B65,via bazzi via biondelli,11432,16,45.4397673869353,9.18759518161271
B65,via antonini via lampedusa,11416,17,45.4370214012394,9.18759917213215
B65,via valla p.za agrippa,11405,18,45.4337144218026,9.18461929248226
B65,agrippa,11403,19,45.4328894174241,9.18280830105431
B65,medeghino,14993,20,45.4314984572727,9.18013628183495
B65,p.za abbiategrasso m2,16932,21,45.4306624359508,9.17679535495107
B64,bonola m1,10115,1,45.4964755021036,9.110671810989
B64,via cilea via bacchelli,10117,2,45.4964835147265,9.10648982681465
B64,via m. di savoia via lampugnano,10097,3,45.4924155603343,9.10652286731703
B64,via lampugnano via angioletti,10096,4,45.4923865163625,9.10374993035948
B64,via balla via f.lli rizzardi,10094,5,45.4934375295349,9.10137092999798
B64,p.za scolari,10090,6,45.4909755751179,9.101142961704
B64,"via f.lli gorlini, 7",10092,7,45.4893415335159,9.10125997872017
B64,"via cascina bellaria, 90",10075,8,45.4836146221682,9.10449497227107
B64,via novara via cascina bellaria,10076,9,45.4780277042857,9.1064629214593
B64,novara - sant' elena,18457,10,45.4766791356391,9.11034818488515
B64,via harar via pinerolo,10254,11,45.476118740419,9.11475786688842
B64,san siro stadio m5,17531,12,45.4760767820507,9.11822987448886
B64,via s. giusto via dessie',16999,13,45.4754117940552,9.12074881125241
B64,via novara via s. giusto,10261,14,45.4725008212326,9.11946684918025
B64,via novara via fleming,10389,15,45.4701808237516,9.12314383150552
B64,p.za amati,10393,16,45.4694398538381,9.125052756787
B64,p.za melozzo da forli',10404,17,45.4681858578253,9.1297137185577
B64,p.le perrucchetti,10378,18,45.4661419028848,9.12802878619886
B64,via primaticcio via f.ze armate,10377,19,45.4627399454636,9.12792480489578
B64,primaticcio m1,10381,20,45.4601459966691,9.12915177478207
B64,via primaticcio via orchidee,10358,21,45.4563180025798,9.13134180999323
B64,via primaticcio via soderini,10360,22,45.4533190617269,9.13316776499176
B64,via dei giacinti via dei gigli,17661,23,45.4511421640747,9.13386984390553
B64,via dei giacinti via dei giaggioli,10356,24,45.4503680681227,9.13126882206178
B64,l.go fatima,17798,25,45.4483311414561,9.13109322613492
B64,via lorenteggio via inganni,10350,26,45.4468181160252,9.12643588383446
B64,via lorenteggio via menaggio,10324,27,45.446140094923,9.12433793182368
B64,via lorenteggio via bisceglie,10202,28,45.4451351239052,9.12045994207697
B64,lorenteggio,13140,29,45.443696132119,9.11616106392447
B64,"nuova vigevanese, 17 (corsico)",13141,30,45.4426551438999,9.1139350914341
B64,via copernico via malakoff (corsico),13142,31,45.4396801667974,9.11425807799768
B64,"via copernico, 53 (corsico)",13143,32,45.4372621980668,9.11191012932898
B64,corsico fs,16967,33,45.4367671567767,9.10847120705059
B64,via copernico v.le liberazione (corsico),13144,34,45.4369821861282,9.10685817309757
B64,via fermi via della repubblica (corsico),13145,35,45.439143137619,9.10117224027499
B64,q.re lavagna (corsico),13146,36,45.436867151592,9.09994926257119
B64,v.le italia via cellini (corsico),13147,37,45.4352911534646,9.09497636205937
B64,via cellini via delle querce (corsico),13148,38,45.4376081541034,9.091793374034
B64,"via curiel, 2 (corsico)",13149,39,45.4394780911512,9.09255636633954
B64,via curiel via verdi (corsico),13150,40,45.4403591309176,9.09510134136802
B64,via fermi via della repubblica (corsico),13151,41,45.4393201397475,9.10245922102204
B64,via copernico v.le liberazione (corsico),13152,42,45.4369501720927,9.10707318949512
B64,corsico fs,16966,43,45.4364001799351,9.10854114336498
B64,"via copernico, 53 (corsico)",13153,44,45.4372462032537,9.11229913551494
B64,via copernico via malakoff (corsico),13154,45,45.4398951811694,9.11514110881028
B64,lorenteggio,13155,46,45.4419311380688,9.11661305428844
B64,molinetto di lorenteggio,10196,47,45.4429201452445,9.11607601962443
B63,bisceglie m1,15771,1,45.4554099938818,9.11290299822602
B63,bisceglie m1 (via lucca),10208,2,45.4557339835693,9.11289499472232
B63,via viterbo via lucca,10218,3,45.457013968797,9.1120369824261
B63,via f.ze armate via sella nuova,10068,4,45.4598239405738,9.10946004042808
B63,via f.ze armate via nikolajevka,10065,5,45.459688924517,9.10476806494149
B63,via f.ze armate via cividale,10062,6,45.4589579222983,9.10133617458566
B63,via bagarotti via valsesia,14815,7,45.4578289129472,9.09635424698598
B63,via bagarotti via da rosciate,10160,8,45.4569269182958,9.09349920257002
B63,via bagarotti via gozzoli,10137,9,45.4559928841643,9.09044128302923
B63,via ippocastani via betulle,10132,10,45.4525499407482,9.08540235806122
B63,via ippocastani via abeti,12942,11,45.4514219406688,9.08201539742952
B63,via salici via ippocastani,10029,12,45.4515128942569,9.08085539790971
B63,"via salici, 6",10027,13,45.4530939520314,9.07940145888912
B63,via ulivi via ontani,13116,14,45.4543238882711,9.0778624819113
B63,"via mosca, 118",11621,15,45.4547529186226,9.07581044557072
B63,via mosca via spinazzola,10024,16,45.453619934747,9.07351653337967
B63,via mosca via val cavallina,10022,17,45.4521408769827,9.07121753392838
B63,muggiano,15558,18,45.4505398852986,9.06807059571032
B63,muggiano,19175,19,45.4487223190273,9.06983555246942
B62,p.za sire raul,12533,1,45.491014871217,9.22967132582831
B62,via teodosio via casoretto,12531,2,45.4890338985974,9.22893836982714
B62,via leoncavallo via mancinelli,15736,3,45.4912178656365,9.22691441531546
B62,p.za durante,12522,4,45.4902469126485,9.22413146557428
B62,via porpora via lulli,12472,5,45.4865718959176,9.22103450211126
B62,via porpora v.le lombardia,12484,6,45.4860099787499,9.22311645724161
B62,v.le lombardia via vallazze,12483,7,45.4845639940263,9.22350750732242
B62,piola m2,12481,8,45.4811659967356,9.22354547601653
B62,v.le romagna p.le piola m2,12478,9,45.479236014374,9.22354750954757
B62,v.le romagna via pascoli,12430,10,45.4763120507578,9.22359051041147
B62,p.za carlo erba,16091,11,45.4748220666569,9.22022059083341
B62,via verrocchio,12170,12,45.4727851117293,9.21943257548609
B62,v.le dei mille p.za novelli,12161,13,45.4708750883449,9.21796061614114
B62,via c. morrone via modena,12152,14,45.4708490757988,9.2154446682986
B62,c.so indipendenza via bronzetti,12143,15,45.4688201222815,9.21464267018502
B62,via bronzetti via archimede,12110,16,45.4659851634011,9.21461272971777
B62,via cadore c.so ventidue marzo,12109,17,45.4625291919964,9.21460770649445
B62,via cadore via anfossi,12105,18,45.4605271942472,9.21425675363321
B62,via cadore via spartaco,12102,19,45.4580412189452,9.21305275829289
B62,via cadore via bergamo,12060,20,45.4560142414834,9.21119575138342
B62,p.le libia,12050,21,45.4534572900695,9.20909683940177
B62,via tiraboschi,12047,22,45.452338277745,9.20819188531629
B62,p.za buozzi,11784,23,45.4502572833765,9.20669986371225
B62,via crema,15296,24,45.4492922937436,9.20271097013737
B62,p.ta romana m3,15441,25,45.4512933005237,9.20348990935217
B61,l.go murani,12672,1,45.4731950936584,9.23514439866642
B61,via strambio (istituto dei tumori),12455,2,45.4735331314691,9.2327373903856
B61,p.le gorini (istituto dei tumori),12452,3,45.4735231055541,9.23106847784348
B61,via botticelli via saldini,12440,4,45.4734800881552,9.22797352366966
B61,l.go rio de janeiro,12434,5,45.4734680908256,9.22498751838217
B61,via juvara via vanvitelli,17625,6,45.4734356637506,9.22100885880089
B61,p.za ascoli,17626,7,45.4734176053666,9.21846281220201
B61,v.le dei mille p.za novelli,12160,8,45.4712371080651,9.21698165701825
B61,dateo,12166,9,45.4683261178825,9.21661268919818
B61,c.so indipendenza via bronzetti,12150,10,45.4683251385254,9.21508068025773
B61,p.za risorgimento,12138,11,45.4682341221533,9.21064772743843
B61,c.so monforte via donizetti,17795,12,45.4677201055115,9.20493078990513
B61,via s. damiano c.so monforte,11847,13,45.4671610977069,9.20161587330139
B61,san babila m1,11842,14,45.4676930624718,9.1983688717293
B61,c.so venezia via senato,11846,15,45.4693080715895,9.19877887046118
B61,p.za cavour,11839,16,45.4718700103593,9.19574285877749
B61,via fatebenefratelli c.so di p.ta nuova,11559,17,45.4732149984993,9.19077694763008
B61,p.za s. marco,11550,18,45.4728609686481,9.18692697321247
B61,lanza m2,11545,19,45.4719670126961,9.18333508354651
B61,cairoli m1,11524,20,45.4678300499457,9.18112808862921
B61,cadorna m1 m2,11277,21,45.4689510255387,9.17675312504025
B60,l.go augusto,18008,1,45.4628479747778,9.19611707368057
B60,l.go augusto,11798,2,45.462537160389,9.19785491803363
B60,palazzo di giustizia,11816,3,45.4623001537483,9.20077685716806
B60,c.so p.ta vittoria (camera del lavoro),11823,4,45.4622751421515,9.20382684463351
B60,p.za cinque giornate,12094,5,45.4622111782892,9.20875575639384
B60,p.za s. maria del suffragio,12099,6,45.4621901552634,9.21104178227657
B60,via cadore c.so ventidue marzo,12112,7,45.4627041736385,9.21471073547279
B60,via bronzetti via archimede,12113,8,45.4651481459971,9.21474373208755
B60,c.so indipendenza via bronzetti,12149,9,45.4672091371547,9.21475671423357
B60,via c. morrone via modena,12151,10,45.4705620712378,9.21478066244246
B60,p.za adelaide di savoia,12153,11,45.4724210467144,9.21480464451364
B60,via eustachi via maiocchi,12155,12,45.4753950364768,9.21481465939869
B60,via plinio via eustachi,12202,13,45.4776680211534,9.21484364498636
B60,via plinio p.le bacone,12195,14,45.4787600195212,9.21354366084548
B60,lima m1,12186,15,45.4800629644348,9.211019656008
B60,via b. marcello,12179,16,45.4811969480503,9.20893168058325
B60,via vitruvio,12173,17,45.4822999560879,9.20693166548646
B60,stazione centrale p.za duca d'aosta m2 m3,15635,18,45.4845898911612,9.20282175182639
B60,via galvani via copernico,11881,19,45.4862148601397,9.19963280190245
B60,via gioia via galvani,11905,20,45.4874068516745,9.19741973894563
B60,via pola via rosellini (inps),11901,21,45.4885958432203,9.19467081670396
B60,p.le lagosta,11633,22,45.4900887810008,9.18983787642093
B60,via lario via nava,13097,23,45.4943577808257,9.19128084539024
B60,zara m3/m5,17341,24,45.4930097530677,9.19259678757626
B59,porta lodovica,11466,1,45.4513812466108,9.18817607964431
B59,via bocconi via sarfatti,11470,2,45.4489132571098,9.19044006215331
B59,via tabacchi via balilla,17376,3,45.4474842764502,9.18066822704373
B59,l.go mahler,11170,4,45.4467662553494,9.17903323491959
B59,"alzaia nav. pavese, 60",11161,5,45.4449252761415,9.17607128363802
B59,v.le liguria,11159,6,45.4432562929435,9.17573527924058
B59,alzaia nav. pavese via rimini,11158,7,45.4412363027547,9.17526831001726
B59,via spezia,11153,8,45.440767323563,9.17314932007994
B59,p.za maggi,11121,9,45.4373613712917,9.17147138189142
B59,via fra cristoforo via renzo e lucia,11127,10,45.4361234036876,9.17290235932881
B59,via fra cristoforo via don rodrigo,11120,11,45.4341493805792,9.17169139345862
B59,q.re cascina caimera,17720,12,45.4323177925737,9.17036893029765
B59,famagosta m2,13769,13,45.437253323734,9.16920941742404
B58,bisceglie m1,10211,1,45.4552419968318,9.11214601394273
B58,"via lucca, 28",10206,2,45.4553549742238,9.11021002340847
B58,"via lucca, 44",10054,3,45.4547679821493,9.10688511419246
B58,via lucca via viterbo,10053,4,45.4548879341525,9.10391312510332
B58,via valsesia via nitti,10050,5,45.4542649619328,9.10082015581987
B58,"via valsesia, 44",10048,6,45.4526929849135,9.10024419427304
B58,"via valsesia, 66",10046,7,45.4539059387066,9.0952292778042
B58,via valsesia via bagarotti,10136,8,45.4555779344203,9.09189128538032
B58,via bagarotti via da rosciate,10162,9,45.4573399378735,9.09400918627499
B58,via cabella via da rosciate,10154,10,45.4589488998596,9.09230723277237
B58,via cabella via gozzoli,10150,11,45.4583159058117,9.09012024220543
B58,via mosca via val d'intelvi,10145,12,45.4595948608089,9.08833726534682
B58,via val d'intelvi via cusago,10144,13,45.4614598389586,9.08696429290039
B58,via noale via cusago,16039,14,45.461020872875,9.08322634008278
B58,baggio via noale,14189,15,45.4594318446564,9.08419735649033
B57,cairoli m1,17394,1,45.4692670202566,9.18331706308146
B57,lanza m2,16919,2,45.4723429569661,9.1816190412719
B57,acquario civico,11531,3,45.4736759957255,9.18142508404197
B57,arena,11543,4,45.4757089423763,9.18164407630839
B57,p.za lega lombarda,11565,5,45.4775528990683,9.18009906016676
B57,v.le elvezia (arena),11310,6,45.4772939070929,9.17839607279365
B57,p.za morselli,11303,7,45.4786678644179,9.17515609744832
B57,via canonica via cagnola,11298,8,45.4797698706739,9.17256412857161
B57,via canonica via sarpi,11295,9,45.4807488244717,9.17049713612106
B57,via prina c.so sempione,11288,10,45.4798708214391,9.16807420523024
B57,c.so sempione via procaccini,11285,11,45.4807188544438,9.16652517754754
B57,domodossola fn m5,10962,12,45.4831588343122,9.16330620330332
B57,c.so sempione via arona,10954,13,45.4848127784851,9.1611292620151
B57,c.so sempione via e. filiberto,10956,14,45.486174800019,9.15936127248346
B57,p.za firenze,10980,15,45.4884567097499,9.15569128119459
B57,via plana v.le m.te ceneri,10970,16,45.4905356619572,9.15289328474236
B57,via gassendi,10695,17,45.4920736419951,9.1501233034993
B57,via tavazzano,10691,18,45.4927216342317,9.1482333290359
B57,via varesina via dal re,10718,19,45.4959436507185,9.14715639233354
B57,via varesina via mola,10711,20,45.4987335732477,9.14410642747933
B57,via varesina via m.te altissimo,10710,21,45.5007095113153,9.14192543813513
B57,via varesina via palizzi,10704,22,45.5026725237078,9.13964541472664
B57,certosa s,10726,23,45.5083584614853,9.1382594114445
B57,via eritrea via de pisis,10729,24,45.512000433867,9.13721039236045
B57,via lessona via trilussa,10485,25,45.5138193967719,9.13660538064833
B57,via satta via lessona,10493,26,45.5166183365332,9.1363484013577
B57,via satta via antona traversi,16715,27,45.5170433567021,9.13909733484606
B57,via satta via pascarella,16716,28,45.517516328066,9.1421682907853
B57,via simoni via pascarella,10744,29,45.5153493850298,9.14395130494464
B57,via lopez,10730,30,45.5141724035863,9.14600826758697
B57,via concilio vaticano ii,10732,31,45.5130274091354,9.14737827330291
B57,q.to oggiaro,10734,32,45.513570401534,9.14879425590711
B566,Via C.na Nuova Via Sanzio (Paderno D.),16551,1,45.5620818824613,9.14736697241105
B566,Via S.Bernardo Via Corridori (Bollate),16552,2,45.5604248825751,9.14118806738292
B566,Via Don Minzoni (Bollate),16553,3,45.5597308695708,9.13856012332377
B566,Via Madonna Via Arno (Bollate),16554,4,45.557878869495,9.14009910566925
B566,Via Madonna Via Brianza (Bollate),16555,5,45.5558849224197,9.1400701268654
B566,Via Madonna Via Kennedy (Bollate),16556,6,45.5521799350934,9.14150109724099
B566,Via Battisti Via Ospitaletto (Bollate),16557,7,45.5471970183607,9.14177510796536
B566,Via M.te Grappa Via Pasubio (Bollate),16558,8,45.5461460188823,9.14094514942202
B566,Via M.te Grappa Via Menotti (Bollate),16559,9,45.5456719936947,9.13537521938353
B566,Via Pellico Via Lorenzini (Bollate),16560,10,45.5453930054524,9.13214627154731
B566,Via Cad. Bollatesi Via M.te Nero (Bollate),16561,11,45.5446229903793,9.12643333142519
B566,P.za Marx (Stazione FN) (Bollate),16562,12,45.5430320017065,9.12194439475672
B566,Via Matteotti Via Fratellanza (Bollate),16563,13,45.5447559935052,9.11904943732758
B566,P.za Mart. della Liberta' (Bollate),16565,14,45.5452399664216,9.11771146530655
B566,Via Turati Via Mazzini (Bollate),16564,15,45.5454089609625,9.11560344963358
B566,Via Vitt.Veneto Via Verdi (Bollate),16566,16,45.5461629412983,9.11442347782203
B566,Via Verdi Via Vitt.Veneto (Bollate),16567,17,45.547375943407,9.11317546598942
B566,Via Verdi Via Bellini (Bollate),16568,18,45.5477149114968,9.1102135131542
B566,Via Verdi Via Mozart (Bollate),16569,19,45.5477358914991,9.10595555268264
B566,Via Dante Via Verdi (Bollate),16570,20,45.5472218961032,9.10413660021421
B566,Via Dante Via Zandonai (Bollate),16571,21,45.5449909454413,9.10498758121876
B566,Via Repubblica Via Dante (Bollate),16572,22,45.5415969654388,9.10568163176676
B566,P.za Indipendenza (Bollate),16442,23,45.5407769762024,9.1014126429624
B566,Via Milano Via Stelvio (Bollate),16443,24,45.5370310157935,9.10429364736009
B566,Via Milano Via del Sempione (Baranzate),16444,25,45.5312471261435,9.10878866095064
B566,Via Milano Via Trieste (Baranzate),16445,26,45.5263201629493,9.11263663442375
B566,Via Milano Via Merano (Baranzate),16446,27,45.5212172571372,9.1165786032353
B566,Roserio (Ospedale Sacco),16447,28,45.5181802794691,9.11902658741386
B566,Roserio (Ospedale Sacco),16521,29,45.5174312884347,9.11908556283413
B561,ARESE (V.Vismara),17444,1,45.5465838563521,9.08958179480432
B561,V.le Einaudi Via Di Vittorio (Arese),16439,2,45.5466238435815,9.08535383531169
B561,V.le Einaudi Via Gramsci (Arese),16440,3,45.5510417836298,9.08525881474858
B561,V.le Resegone Via Marmolada (Arese),16495,4,45.5538477879932,9.08365682034112
B561,V.le Resegone Via Matteotti (Arese),17449,5,45.5523478180495,9.07863888336733
B561,Via Matteotti V.le dei Platani (Arese),16481,6,45.5553957720083,9.0772288723043
B561,V.le dei Platani Via Matteotti (Arese),16482,7,45.5552967259467,9.0745888936282
B561,V.le dei Platani V.le Nuvolari (Arese),16483,8,45.5546727259849,9.06804899390031
B561,Via Aldo Moro Via Allende (Arese),17448,9,45.5562546618439,9.06228305481848
B561,Via Don Minzoni Via Allende (Arese),16428,10,45.5538977468763,9.06226208250095
B561,Via Don Minzoni V.le Nuvolari (Arese),16429,11,45.553813716193,9.06592903284497
B561,V.le Sempione Via Nuvolari (Arese),16494,12,45.5514577474744,9.06964003459788
B561,Via Gran Paradiso Via Valera (Arese),16434,13,45.549665815966,9.07107897655341
B561,Via Gran Paradiso Via degli Orti (Arese),16435,14,45.5475007851573,9.07146199124887
B561,Via Leopardi (Arese),16436,15,45.5454548838914,9.07606492910827
B561,Via Statuto Via Mattei (Arese),16437,16,45.5435049145566,9.07805890480814
B561,Via M.te Grappa Via Marconi (Arese),17655,17,45.5381146322644,9.08265650258687
B561,Rho-Fiera M1,16041,18,45.5217831855284,9.08740093282162
B560,Via Peloritana (Fraz Bariana) (Garbagnate M.se),16421,1,45.5723315696122,9.06938390070217
B560,Via Garibaldi Via Valli (Garbagnate M.se),16422,2,45.5687515836136,9.07296288223393
B560,Via Garibaldi (Fraz.S.M. Rossa) (Garbagnate M.se),16423,3,45.5666306531505,9.07514983219221
B560,Via Garibaldi Via Matteotti (Garbagnate M.se),16424,4,45.5643196586445,9.07753781348673
B560,Via Garibaldi Via Kennedy (Garbagnate M.se),16425,5,45.5622347056483,9.07962482926885
B560,Via Trento Via Verdi (Bollate),16441,6,45.5452189487383,9.09701670292351
B560,P.za Indipendenza (Bollate),16442,7,45.5407769762024,9.1014126429624
B560,Via Milano Via Stelvio (Bollate),16443,8,45.5370310157935,9.10429364736009
B560,Via Milano Via del Sempione (Baranzate),16444,9,45.5312471261435,9.10878866095064
B560,Via Milano Via Trieste (Baranzate),16445,10,45.5263201629493,9.11263663442375
B560,Via Milano Via Merano (Baranzate),16446,11,45.5212172571372,9.1165786032353
B560,Roserio (Ospedale Sacco),16447,12,45.5181802794691,9.11902658741386
B56,crescenzago m2,15490,1,45.5051427922989,9.24660106598416
B56,via giulietti via padova,15258,2,45.508156792059,9.24730701595997
B56,via padova via rovigo,12795,3,45.5078227248332,9.24534706399088
B56,via padova via emo,12775,4,45.5059337920466,9.24283808466788
B56,via padova via de la salle,12767,5,45.5032857918672,9.23934218423646
B56,via padova v.le don orione,12761,6,45.5020347933882,9.23761017978201
B56,via padova via bengasi,12757,7,45.4997898241256,9.23467625538505
B56,via padova via mamiani,12549,8,45.4970068374382,9.23100832327386
B56,via padova via esterle,12748,9,45.4954718510049,9.22899333472726
B56,via padova via chavez,12527,10,45.4929578833319,9.22565239678906
B56,via padova via predabissi,12524,11,45.4916288631735,9.2239033970733
B56,via padova via pasteur,12513,12,45.4895328813862,9.22104047269883
B56,p.le loreto via padova,12257,13,45.4869509363309,9.21759250412722
B56,loreto m1 m2,12211,14,45.4842319633969,9.21598556708268
B56,loreto m1 m2,12200,15,45.4857779035229,9.21480657285727
B55,loreto m1 m2,12212,1,45.4858889044849,9.21564757421325
B55,via pecchio v.le abruzzi,12228,2,45.4844249540003,9.21774355156718
B55,p.za aspromonte,12469,3,45.4843039257137,9.22081149738253
B55,via porpora via lulli,12470,4,45.4857619277164,9.22118350016497
B55,via lulli via costa,12511,5,45.4873638909837,9.22115150779221
B55,p.za durante,12515,6,45.4886969217923,9.22317348082538
B55,via teodosio via casoretto,12530,7,45.4888929474263,9.22876837670947
B55,l.go gemito,12537,8,45.489236908042,9.23216236213677
B55,udine m2,12730,9,45.4908079426699,9.23633629913043
B55,via feltre via crescenzago,12740,10,45.4911859712914,9.24075624462352
B55,via pisani dossi via feltre,12744,11,45.4902359634409,9.24298219098576
B55,via pisani dossi via crescenzago,12743,12,45.4877510139271,9.24337420291249
B55,via rombon via passo rolle,12750,13,45.4868959775955,9.24702620732532
B55,via passo rolle via rombon,12752,14,45.4884739914514,9.24820812547999
B55,via passo rolle via feltre,12754,15,45.4907469368171,9.2478131766299
B55,"via feltre, 100",12871,16,45.491535928688,9.24962913609457
B55,cimitero di lambrate,12873,17,45.4898629785368,9.255155085044
B542,Casa di Reclusione (Bollate),15488,1,45.5226451645398,9.101624767776
B542,Rho-Fiera M1,16041,2,45.5217831855284,9.08740093282162
B54,duomo m1 m3,11516,1,45.4618671041785,9.19056396479289
B54,missori m3,11515,2,45.4607571488549,9.19040402505794
B54,via larga,11794,3,45.4627781401537,9.19456395380851
B54,l.go augusto,11801,4,45.4637441046202,9.1976069308578
B54,san babila m1,11809,5,45.4655650842291,9.1982949136666
B54,via visconti di modrone,11813,6,45.4657241248129,9.19988689764869
B54,via mascagni via conservatorio,11818,7,45.4660840923775,9.20217284617057
B54,c.so monforte via donizetti,11853,8,45.4673090903844,9.20458383534301
B54,p.za tricolore,12128,9,45.4675751250245,9.20653176608304
B54,p.za risorgimento,12137,10,45.4675581041663,9.2108797105853
B54,c.so indipendenza via bronzetti,12142,11,45.4675741372782,9.21426267931691
B54,dateo,17653,12,45.4685176564982,9.2174272132317
B54,v.le dei mille p.za novelli,17654,13,45.4703712362182,9.21740183745821
B54,v.le dei mille p.za novelli,12167,14,45.47079310799,9.21850063480663
B54,via sidoli via vanvitelli,17630,15,45.4696832974555,9.22177220989198
B54,p.le susa,12432,16,45.4675751852338,9.22336055109465
B54,v.le argonne via da cortona,12441,17,45.4676931903614,9.22723355069258
B54,l.go porto di classe,12447,18,45.4677441919272,9.23102047928499
B54,l.go sereni,12457,19,45.4673721997984,9.23383244322817
B54,via don s. martino via marescalchi,12668,20,45.4682221454536,9.23513240014895
B54,p.za s. gerolamo,12674,21,45.4694501367141,9.23691437736436
B54,via amadeo via s. faustino,12680,22,45.4709191741519,9.24128033988238
B54,"via ortica, 16",12683,23,45.4709521490978,9.24456827858751
B54,via cima via zambaldi,12691,24,45.4718281519763,9.24754121170073
B54,via pitteri via borgomainerio,12855,25,45.473053169326,9.24890526357613
B54,via pitteri via trentacoste,15582,26,45.4748821319422,9.24807626370406
B54,via pitteri via rubattino,12695,27,45.4757471014367,9.24768821918201
B54,via pitteri via tanzi,15274,28,45.4780951317723,9.24661420269302
B54,via pitteri via crespi,14862,29,45.4799150744707,9.24578622966502
B54,via pitteri via oslavia,12725,30,45.4813970405828,9.24510319245477
B54,via c. flaminio via saccardo,12721,31,45.4812280426122,9.24201226967325
B54,rimembranze di lambrate,12723,32,45.4829120515826,9.24127326467688
B54,v.le rimembranze di lambrate via rodano,12715,33,45.4822550668069,9.23918529265955
B54,stazione lambrate m2,12710,34,45.4849659724789,9.23630530968816
B53,sesto marelli m1,15040,1,45.5242025418658,9.22904523427357
B53,v.le edison via oberdan (sesto s.g.),15044,2,45.5252745382789,9.23321512657452
B53,v.le edison p.za xi settembre (sesto s.g.),17859,3,45.5265886231091,9.23591686399718
B53,via pace v.le rimembranza (sesto s.g.),17442,4,45.5281415310445,9.23933000107705
B53,v.le rimembranze via pace (sesto s.g.),13977,5,45.5278725542122,9.24060999460426
B53,v.le rimembranze via f.lli di dio (sesto s.g.),13978,6,45.5236605544516,9.2408750493036
B53,via crescenzago (cimitero) (sesto s.g.),13979,7,45.5224425785238,9.24108800643552
B53,via crescenzago via lombardia (sesto s.g.),13980,8,45.5192646349317,9.24274203652585
B53,lussu,17995,9,45.5174156868298,9.24472353832407
B53,via la malfa,12806,10,45.5170306557363,9.24576203879859
B53,via saragat via trasimeno,12902,11,45.5153656906584,9.24966196015112
B53,via trasimeno via s. mamete,12903,12,45.5155767021842,9.25209394828039
B53,"via s. mamete, 91",12890,13,45.5131097399597,9.25280796320916
B53,"via s. mamete, 51",12887,14,45.511736741031,9.2524229361206
B53,via s. mamete via trasimeno,12880,15,45.5123726852749,9.24973700101667
B53,via adriano via del ricordo,12801,16,45.5116777351928,9.24655007107126
B53,via del ricordo via adriano,15636,17,45.5110697066517,9.24643805144123
B53,via del ricordo via de notaris,12794,18,45.5104957181039,9.24360508865838
B53,via del ricordo via p.te nuovo,12792,19,45.5092967095991,9.23794819981932
B53,via p.te nuovo via asiago,12785,20,45.5076796983528,9.2365582214874
B53,via p.te nuovo via biumi,12762,21,45.5056707655322,9.2374672230515
B53,via padova via de la salle,12768,22,45.5032657701716,9.24052113146939
B53,via riccardi v.le don orione,12765,23,45.5016027954036,9.23934920683712
B53,via derna via benadir,12759,24,45.4990668035218,9.23594824693452
B53,via palmanova via cesana,12755,25,45.4966028987731,9.23505026607149
B53,via carnia via palmanova,12733,26,45.4945529230441,9.23579127492873
B53,p.le udine via carnia,12731,27,45.4917969452569,9.23665829211462
B53,via ronchi p.za m.te titano,12729,28,45.4873900058075,9.23709430166994
B53,stazione lambrate m2,16092,29,45.4850029809641,9.23826928444696
B528,RHO (Capuana),16657,1,45.5353937913818,9.01452679639789
B528,Via Capuana Via Giusti (Rho),16658,2,45.535568795808,9.01678776882035
B528,Via Capuana Via Mattei (Rho),16659,3,45.5358338231222,9.02241466139831
B528,C.so Europa Via D'Aquino (Rho),16660,4,45.5343248449128,9.02670163447546
B528,C.so Europa (Ospedale) (Rho),16661,5,45.5331978845254,9.03380054190676
B528,C.so Europa Via Lainate (Rho),16662,6,45.5326158936292,9.0389404704418
B528,C.so Europa Via Piave (Rho),16335,7,45.5309799453838,9.04405244096097
B528,C.so Europa Via Marconi (Rho),16336,8,45.5286079600664,9.04639245999968
B528,C.so Europa Via Canova (Rho),16663,9,45.5252390227453,9.05110841287738
B528,Via Borromeo (Loc.Pantanedo) (Rho),16664,10,45.5263200661505,9.0616692503647
B528,S.S. del Sempione Via Battisti (Pero),16634,11,45.5181541236661,9.07142817580403
B528,S.S. del Sempione (Hotels Fiera) (Pero),16632,12,45.5164231420924,9.07459914367158
B528,Pero M1,16630,13,45.5110692808122,9.08559302854951
B528,S.S. del Sempione Via Pisacane (Pero),16627,14,45.5082653002166,9.09157895499815
B528,Molino Dorino M1,16665,15,45.50484439125,9.09408799256022
B528,molino dorino m1,13129,16,45.5052617657712,9.09361578928424
B528,via gallarate via appennini,15613,17,45.5065223650543,9.09865189911185
B528,via gallarate via capo rizzuto,15614,18,45.5057963908999,9.10167983788769
B528,Via Gallarate Via Torrazza,13130,19,45.5050493986206,9.10487085076154
B528,Via Gallarate Via Jona,13131,20,45.5039384260768,9.10905878796778
B528,Via Gallarate Via Bolla,13132,21,45.5031834457102,9.11233877503741
B528,Via Gallarate Via Cefalu',13133,22,45.5021804785013,9.11637771623352
B528,via gallarate via rizzo,10302,23,45.5018384558991,9.12068264040406
B528,p.le cimitero maggiore,10306,24,45.5030884902544,9.12160461845839
B52,via merloni,13137,1,45.5251773233968,9.16441896483086
B52,via esculapio,11049,2,45.5247713515895,9.16234498133564
B52,q.re comasina,11054,3,45.5253932941662,9.16132999416577
B51,ponale m5,12308,1,45.5227694780535,9.20865144211425
B51,v.le suzzani v.le berbera,12303,2,45.5215544933003,9.20620645851973
B51,v.le suzzani via da bussero,12008,3,45.5186595261413,9.20455050779803
B51,via arganini via della pila,12002,4,45.5170365086698,9.20075159925496
B51,via cecchi,12001,5,45.5186265113583,9.20001257291269
B51,via maestri del lavoro,11998,6,45.5191274787449,9.19702064187453
B51,niguarda nord,11994,7,45.5186214762241,9.1926136751003
B51,via val di ledro,11686,8,45.5159185221202,9.1889067376287
B51,niguarda centro,11676,9,45.5144015416394,9.1911267013369
B51,girola,11669,10,45.511022555766,9.19052072577277
B51,ospedale maggiore (niguarda),11668,11,45.5094545902616,9.18978873562491
B51,via benefattori dell'ospedale,11663,12,45.5071026199204,9.18860278926368
B51,nizza,11655,13,45.5040016602564,9.18883982058815
B51,via murat via cufra,11658,14,45.5017046670873,9.18986180041188
B51,via murat via biraghi,11656,15,45.4989067206341,9.19095879192103
B51,via lario via murat,11660,16,45.4970927250429,9.19172777098045
B51,via lario via murat,17359,17,45.495593722608,9.19178881325823
B51,viale stelvio dopo v.le zara,18465,18,45.4930215693192,9.19188724595985
B50,cairoli m1,15004,1,45.4676230318185,9.18089113619945
B50,cairoli m1,11524,2,45.4678300499457,9.18112808862921
B50,cadorna m1 m2,17233,3,45.4678580310723,9.17517816523359
B50,p.za giovine italia,17755,4,45.4677008021081,9.16968813378186
B50,boccaccio,19617,5,45.4675577869088,9.16687073827775
B50,p.le baracca,11209,6,45.4654320517298,9.16543428625793
B50,v.le s. michele del carso p.za de meis,10895,7,45.4635120354916,9.16445036211458
B50,p.le aquileia,10887,8,45.4613780439009,9.16210836875188
B50,p.za vesuvio,10878,9,45.4602720292544,9.15914241140854
B50,via washington via costanza,10865,10,45.4599060536231,9.1552514527781
B50,via l. del maino p.le tripoli,10599,11,45.4602770334272,9.15065552517763
B50,p.le tripoli,10594,12,45.4598240343346,9.1498745643983
B50,v.le misurata,10597,13,45.457540079566,9.15115555436988
B50,p.za bolivar,10829,14,45.4550690862994,9.15176951460993
B50,via lorenteggio p.za bolivar,10822,15,45.4544251097482,9.14969819924806
B50,via lorenteggio via vignoli,10558,16,45.4532260783868,9.1460975810462
B50,p.za frattini,18074,17,45.4521658966301,9.14165150743507
B50,via lorenteggio via primule,10542,18,45.4509940946976,9.13939870475845
B50,via lorenteggio via primaticcio,10369,19,45.4500221017314,9.13629775910166
B50,via dei giacinti via dei gigli,17661,20,45.4511421640747,9.13386984390553
B50,via dei giacinti via dei giaggioli,10356,21,45.4503680681227,9.13126882206178
B50,l.go fatima,17798,22,45.4483311414561,9.13109322613492
B50,via lorenteggio via inganni,10350,23,45.4468181160252,9.12643588383446
B50,via lorenteggio via menaggio,10324,24,45.446140094923,9.12433793182368
B50,via lorenteggio via bisceglie,10202,25,45.4451351239052,9.12045994207697
B50,lorenteggio,10195,26,45.4437861051681,9.11556001516302
B50,lorenteggio,10197,27,45.4433411158739,9.11619107369312
B49,via pio ii (ospedale san carlo),10247,1,45.4702238131604,9.11254189959866
B49,via pio ii via f.lli zoia,10085,2,45.4697967898747,9.10994492021828
B49,via rossellini via paone,15228,3,45.4691927822107,9.10715101214477
B49,via paone via marchesi,15229,4,45.4707747876387,9.10575896403796
B49,via milly via marchesi,10078,5,45.4718447887875,9.1067680119
B49,"via milly, 9",10081,6,45.4735157652579,9.10642902754931
B49,via l. zoja via f.lli zoia,10083,7,45.4740877688956,9.10792296368783
B49,via marx via cannizzaro,10242,8,45.4742347667944,9.10954397518893
B49,via novara via s. elena,10243,9,45.4757277210901,9.11105195053648
B49,via harar via pinerolo,10254,10,45.476118740419,9.11475786688842
B49,san siro stadio m5,17531,11,45.4760767820507,9.11822987448886
B49,p.za axum (stadio meazza),16998,12,45.4753587689981,9.12400879460521
B49,via capecelatro (ist. don gnocchi),10398,13,45.4731078437655,9.12714974263493
B49,"via capecelatro, 64",10400,14,45.4722788214662,9.1282316921524
B49,via capecelatro via paravia,10406,15,45.4710558233644,9.12984270966295
B49,via morgantini via capecelatro,10410,16,45.4694508815797,9.13194767971456
B49,via morgantini via civitali,10419,17,45.4702568483649,9.13467567462661
B49,p.le selinunte,10606,18,45.4722008758852,9.13810757586577
B49,p.za m.te falterona,10617,19,45.4742278349878,9.14076054494783
B49,p.le zavattari,10620,20,45.4750498424011,9.14200253675314
B49,lotto (fieramilanocity) m1 m5,10652,21,45.478448791764,9.14452950812444
B48,lotto (fieramilanocity) m1 m5,17533,1,45.4789458102243,9.14422548839709
B48,p.za stuparich,10654,2,45.4821507664396,9.14327352195351
B48,v.le serra v.le scarampo,10662,3,45.4847907062768,9.1439224917748
B48,istituto palazzolo,10679,4,45.4896076541391,9.14284842605839
B48,don l. palazzolo,17775,5,45.4893619801187,9.14483550515215
B47,romolo m2,17602,1,45.4445585354743,9.16759667342916
B47,v.le cassala,10818,2,45.4455382113146,9.16374942894402
B47,p.za bilbao,10812,3,45.4437722336669,9.15844447745346
B47,via watt via tosi,10810,4,45.4444692500723,9.15562053255363
B47,via watt p.za ohm,10535,5,45.4433851943379,9.14973064242716
B47,p.za ohm,10533,6,45.4418781946782,9.14871866916708
B47,via s. rita via bari,10796,7,45.4393092595575,9.15202462281175
B47,via s. rita p.za miani,10798,8,45.4380562989363,9.1536105970355
B47,v.le faenza p.za miani,10760,9,45.4372952820799,9.15254664204489
B47,v.le faenza via taranto,10505,10,45.4372263294421,9.15017664848411
B47,v.le faenza via campari,10501,11,45.4371523098194,9.14778967325518
B47,via chiodi v.le faenza,10521,12,45.4384172416424,9.14075176676277
B47,q.re barona,10511,13,45.4389952153927,9.13874079051039
B47,via pepere via giussani,10514,14,45.4400552084561,9.13812078541789
B47,via giussani,10515,15,45.4409402182282,9.14015977449688
B47,p.le negrelli,10517,16,45.4434502073906,9.13936577668173
B47,via l. il moro via manfredonia,10338,17,45.4428802088597,9.13475376818957
B47,via l. il moro via merula,10329,18,45.4410471810289,9.12933489107455
B47,via l. il moro via s. colombano,13176,19,45.4397071891006,9.12676692378556
B47,q.re lodovico il moro,17463,20,45.4372121988785,9.12301900116644
B47,via buccinasco via santi,16313,21,45.4361032377201,9.12459601719075
B47,via gonin via giordani,16314,22,45.4439261654731,9.12288298053739
B47,via bisceglie via bensi,10203,23,45.4476610835668,9.12035294680892
B47,via bisceglie via ciconi,10214,24,45.4523800398285,9.11751499671102
B47,bisceglie m1,17465,25,45.455139971008,9.11348799497298
B46,cantalupa (area di servizio),16735,1,45.4193756335724,9.15768928999441
B46,q.re binda,17431,2,45.4256535089223,9.16783550459507
B46,via j.palach (ex cartiera),17432,3,45.4272094912158,9.16871850120008
B46,via j.palach (asilo),17433,4,45.4285694551288,9.16813844505135
B46,via rosa bianca via palach,17718,5,45.4294584432064,9.16683750772204
B46,via donna prassede,17719,6,45.4297994639023,9.16890440850528
B46,q.re cascina caimera,17720,7,45.4323177925737,9.17036893029765
B46,famagosta m2,15602,8,45.437277340391,9.16927844050092
B45,san donato m3,12812,1,45.428703696389,9.25560336355396
B45,via marignano (sede inps),15311,2,45.4345836445635,9.26537723373874
B45,via camaldoli via rilke,15959,3,45.4373875918416,9.26618625538815
B45,via ucelli di nemi via rilke,12909,4,45.4385365797738,9.26451021047879
B45,ucelli di nemi,18133,5,45.4400022371977,9.26406555134088
B45,via ucelli di nemi via serrati,12913,6,45.4425095709875,9.2642491775988
B45,ospedale monzino,12906,7,45.4445714980969,9.26243023583371
B45,v.le ungheria via mecenate,17697,8,45.4469044669156,9.25459494981988
B45,v.le ungheria l.go guerrieri gonzaga,17698,9,45.4462532207007,9.25266571718344
B45,v.le ungheria l.go guerrieri gonzaga,17696,10,45.4459277640925,9.25174255872477
B44,q.re turro,15930,1,45.4991348024159,9.22912631888542
B44,via valtorta via stamira d'ancona,14861,2,45.4999987959569,9.2268213395363
B44,turro m1,12541,3,45.5001167414803,9.22169842847623
B44,gorla m1,12543,4,45.504566727848,9.22241834261286
B44,via asiago via apelle,12547,5,45.5053277668304,9.22670337225603
B44,via asiago via pisino,12551,6,45.505723773771,9.22912624964865
B44,via astico,12572,7,45.5064807546169,9.23307122270357
B44,via p.te nuovo via asiago,12784,8,45.5072877428866,9.23648617288392
B44,via p.te nuovo via biumi,12762,9,45.5056707655322,9.2374672230515
B44,via padova via de la salle,12768,10,45.5032657701716,9.24052113146939
B44,via palmanova via regina teodolinda,12776,11,45.5025688050542,9.24407110564937
B44,via palmanova via bottego,12779,12,45.5035608111142,9.24537512540969
B44,crescenzago m2,12782,13,45.5050227630479,9.24729906427287
B44,via palmanova via valdo,12875,14,45.5068507471529,9.24965001778829
B44,"via palmanova, 209",12882,15,45.5082597450521,9.25147603471126
B44,"via palmanova, 221",12884,16,45.5101897570379,9.25400195397472
B44,"via padova, 353",12892,17,45.5115697574638,9.25576492638876
B44,via padova via rizzoli,12898,18,45.5121647485705,9.2592248795859
B44,cascina gobba m2,12899,19,45.5113147408364,9.26030084259289
B433,Bisceglie M1,16353,1,45.4549239994171,9.11232999887759
B433,via viterbo via lucca,10218,2,45.457013968797,9.1120369824261
B433,via f.ze armate via sella nuova,10068,3,45.4598239405738,9.10946004042808
B433,Via F.ze Armate Via Rismondo,10164,4,45.4606428778873,9.09478324363598
B433,Via Rismondo Via Da Baggio,10152,5,45.4646107862914,9.0918082301789
B433,via q.to romano via roane,10141,6,45.4649077671732,9.08624728688022
B433,Via Fermi Via Airaghi (Settimo M.se),17301,7,45.4723936788637,9.07732933826412
B433,Via Galvani (Settimo M.se),17093,8,45.4707946659291,9.07276939732158
B433,Via 4 Novembre Via Meucci (Settimo M.se),16357,9,45.4673437355088,9.07000846043556
B433,Via Melegnano,19599,10,45.4642320120545,9.07238966445342
B433,Via 4 Novembre Via Solferino (Settimo M.se),16355,11,45.4650317807083,9.07470140970962
B433,Via 4 Novembre Via Meucci (Settimo M.se),16356,12,45.4675147579752,9.06980745527661
B433,SETTIMO M. (Vill.Cavour),16360,13,45.4702536993382,9.06717347245103
B433,Via Albarella Via Pavese (Settimo M.se),16362,14,45.4718816691997,9.06408450366616
B433,Via Barni Via Vitt.Veneto (Settimo M.se),16364,15,45.4733686575688,9.06126955234163
B433,L.go Giovanni XXIII (Settimo M.se),16366,16,45.4803225671396,9.05461463471771
B433,Via della Liberta' Via F.lli Rosselli (Settimo M.s,16368,17,45.4840774964782,9.05317961368944
B433,SETTIMO M.SE (V.Liberta'),15110,18,45.4876334430266,9.05120763050557
B433,Via Vighignolo Via Don Minzoni (Settimo M.se),16370,19,45.4940573326473,9.04621263267095
B433,Via Mereghetti Via Airaghi (Settimo M.se),16372,20,45.4958673192214,9.0439776125621
B433,Via Mazzini,19600,21,45.5002916806496,9.03069428013859
B433,Ghisolfa,19620,22,45.5023599809471,9.02943020153007
B433,Via Dell' Artigianato,19603,23,45.5035637245128,9.03187189722324
B431,BAREGGIO (V.Roma),16319,1,45.4853532956152,8.99601931906101
B431,Via Roma C.so Italia (Bareggio),15791,2,45.4777394072945,8.99782826911996
B431,Via Mad.Pellegrina (Bareggio),15792,3,45.4790714294264,9.00219825604572
B431,Via Morandi Via S.Anna,15793,4,45.4827253991859,9.00126921078192
B431,Via Milano Via Toti (Bareggio),14422,5,45.485317359169,9.0062901544298
B431,P.za Dubini (Cornaredo),14423,6,45.4871933717187,9.01527603949408
B431,Via Milano Via S.Siro (Cornaredo),14424,7,45.4888483501062,9.0241439213184
B431,Via Milano Via Garibaldi (Cornaredo),14425,8,45.4892533649681,9.02869785674569
B431,Via Garibaldi Via Brera (Cornaredo),16320,9,45.4972862901816,9.02649880010639
B431,Via Brera Via Mazzini (Cornaredo),16375,10,45.4988152397636,9.03104976910554
B431,Via Mazzini,19600,11,45.5002916806496,9.03069428013859
B431,Via S.Carlo Via Ponti (Cornaredo),16322,12,45.5025782149848,9.02860374429063
B431,Sempione,19619,13,45.5052376254837,9.02885201920869
B431,Via Magenta Via Cornaredo (Rho),16323,14,45.514953087869,9.03264270371981
B431,Via Magenta (Stazione) (Rho),16324,15,45.5236719886531,9.04407745478105
B43,p.za firenze,10986,1,45.4877147606719,9.15736227798184
B43,c.so sempione via e. filiberto,10993,2,45.486682782151,9.1592582345893
B43,via pier della francesca via losanna,10958,3,45.4851728088448,9.16173021817676
B43,domodossola fn m5,10963,4,45.4835078437454,9.16443022203082
B43,p.za gramsci,11286,5,45.4820358444846,9.16750515753994
B43,via canonica via sarpi,11293,6,45.4806368340281,9.17052212169172
B43,via canonica via cagnola,11299,7,45.4793538583248,9.17328712615493
B43,p.za morselli,11304,8,45.4786628728362,9.17494812675117
B43,v.le elvezia (arena),11307,9,45.4775709399549,9.17701508767254
B43,p.za lega lombarda,11580,10,45.478147906964,9.18228198309699
B43,moscova m2,11592,11,45.4777579025958,9.18411700364583
B43,l.go treves,11551,12,45.475561950731,9.18647494993003
B43,p.za mirabello,11556,13,45.4751659847832,9.18950890908165
B43,c.so di p.ta nuova via montebello,11561,14,45.4753739643426,9.19169590949116
B43,via moscova c.so di p.ta nuova,11563,15,45.476709950962,9.19190088868317
B43,p.le principessa clotilde (osp. fatebenefratelli),11861,16,45.4799079081317,9.19302485391473
B43,via gioia via vespucci,11606,17,45.4817308866255,9.19189891120845
B43,gioia m2,11868,18,45.484868872199,9.19566486478651
B43,via gioia via galvani,11875,19,45.4865278555196,9.19753580825591
B43,sondrio m3,11911,20,45.4890038294261,9.20043271643095
B43,v.le lunigiana via gioia,11932,21,45.4915418110381,9.20343869355336
B43,via gioia via cagliero,11940,22,45.4939697812583,9.20634660234897
B43,via gioia via tirano,12265,23,45.4969247890317,9.20813564759818
B43,via e. de marchi via s. r. delle ande,12268,24,45.4996047322771,9.2091945330486
B43,p.za greco (rimembranze),12269,25,45.500635745769,9.21166854990953
B424,BAREGGIO (V.Gallina),15786,1,45.4802103697262,9.00082824140689
B424,Via Roma C.so Italia (Bareggio),15791,2,45.4777394072945,8.99782826911996
B424,Via Mad.Pellegrina (Bareggio),15792,3,45.4790714294264,9.00219825604572
B424,Via Morandi Via S.Anna,15793,4,45.4827253991859,9.00126921078192
B424,Via Milano Via Toti (Bareggio),14422,5,45.485317359169,9.0062901544298
B424,P.za Dubini (Cornaredo),14423,6,45.4871933717187,9.01527603949408
B424,Via Milano Via S.Siro (Cornaredo),14424,7,45.4888483501062,9.0241439213184
B424,Via Milano Via Garibaldi (Cornaredo),14425,8,45.4892533649681,9.02869785674569
B424,Via Milano Via C.na Torretta (Cornaredo),14426,9,45.4899564740626,9.03684074104039
B424,molino dorino m1,13129,10,45.5052617657712,9.09361578928424
B424,Molino Dorino M1,15100,11,45.5050773467099,9.09308902008645
B423,SETTIMO M.SE (V.Liberta'),15112,1,45.4872824562174,9.05132761144191
B423,Via Grandi Via Battisti (Settimo M.se),15113,2,45.4861064362733,9.05420855026725
B423,Via Di Vittorio Via Leopardi (Settimo M.se),15114,3,45.4861334555384,9.05677454059258
B423,Via Di Vittorio Via Giletta (Settimo M.se),15115,4,45.4826975487265,9.05787152589001
B423,Via Di Vittorio Via Pastore (Settimo M.se),15116,5,45.4804545384055,9.05960552906825
B423,Via Don Sturzo (Municipio) (Settimo M.se),15117,6,45.479148581204,9.05739861246744
B423,Via Vitt.Veneto Via Don Sturzo (Settimo M.se),13701,7,45.47771156697,9.0559916149707
B423,Via Barni Via Vitt.Veneto (Settimo M.se),16365,8,45.4730376554587,9.0621105341078
B423,Via Albarella Via Pavese (Settimo M.se),16363,9,45.4717126444524,9.0639494911235
B423,SETTIMO M. (Vill.Cavour),16361,10,45.4701377118516,9.06511551118097
B423,Via Galvani (Settimo M.se),17094,11,45.4708617199395,9.0733224243903
B423,Via Fermi Via Airaghi (Settimo M.se),17300,12,45.4722496725401,9.07735134898807
B423,via airaghi via q.to romano,15120,13,45.4742356812339,9.08181730419196
B423,via de sica,10178,14,45.4777556494033,9.08670518525753
B423,via togni via s. romanello,10182,15,45.4782406743427,9.08859017033923
B423,via tofano via ferrieri,15535,16,45.4767117134926,9.09340614408812
B423,"via caldera, 65",10071,17,45.4762976855205,9.0973630937053
B423,via caldera via novara,10074,18,45.4788136932055,9.10264200885815
B423,via novara via cascina bellaria,10076,19,45.4780277042857,9.1064629214593
B423,Via Novara Via S. Elena,10249,20,45.4760877332773,9.11230993096486
B423,Via Novara Via Bozzi,10252,21,45.4754427602536,9.11415788347854
B423,"Via Novara, 127",10258,22,45.4738967877122,9.11714386291396
B423,via novara via s. giusto,16996,23,45.4733557741961,9.1196358641356
B423,via s. giusto via dessie',16997,24,45.4756397934684,9.12117679030387
B423,san siro stadio m5,17530,25,45.4763367825204,9.11844184495317
B42,q.re bicocca,15061,1,45.5263644423666,9.20379448865926
B42,p.za s. giuseppe,12010,2,45.526123444477,9.20575248180257
B42,via arezzo v.le suzzani,12317,3,45.5254764494564,9.20800843382303
B42,v.le suzzani via ponale,12305,4,45.5235144639371,9.2073304462769
B42,v.le suzzani v.le berbera,12303,5,45.5215544933003,9.20620645851973
B42,v.le suzzani via da bussero,12008,6,45.5186595261413,9.20455050779803
B42,via arganini via della pila,12002,7,45.5170365086698,9.20075159925496
B42,via cecchi,12001,8,45.5186265113583,9.20001257291269
B42,via maestri del lavoro,11998,9,45.5191274787449,9.19702064187453
B42,niguarda nord,11994,10,45.5186214762241,9.1926136751003
B42,p.za belloveso,15414,11,45.515672503142,9.19352367936838
B42,via monte rotondo,11965,12,45.5146355514378,9.19442369230552
B42,via gregorovius via m.te rotondo,11971,13,45.5142075506676,9.19749162357929
B42,via gregorovius v.le suzzani,11983,14,45.5132885545178,9.20073660652692
B42,v.le suzzani via s. monica,11981,15,45.5121715586481,9.20088461036693
B42,v.le suzzani via pianell,11976,16,45.5102296174221,9.19980763924647
B42,v.le ca' granda v.le suzzani,11969,17,45.5074376087183,9.19827368452582
B42,v.le suzzani via val di nievole,11954,18,45.5046856765206,9.19681470223857
B42,istria m5,11951,19,45.5019356701163,9.19697670964878
B42,via abbazia p.le istria,11955,20,45.5008437118996,9.19846869484073
B42,p.le farina,11960,21,45.4985687471534,9.19950370827504
B42,via cagliero v.le stefini,11927,22,45.4956917961235,9.20299071611938
B42,via gioia via cagliero,11941,23,45.4943457747153,9.20594862210678
B42,v.le lunigiana,11937,24,45.4911148560318,9.20561563001427
B42,stazione centrale via tonale,11929,25,45.4886048783494,9.20372266139448
B42,stazione centrale m2 m3,11921,26,45.4868308881912,9.20249168581321
B41,bruzzano fn,17439,1,45.5317312779949,9.17235683222209
B41,via senigallia,11388,2,45.5321302307234,9.16814489336297
B41,via oroboni via senigallia,17690,3,45.5293935840734,9.16705665509646
B41,v.le rubicone via oroboni,11386,4,45.5286193215635,9.1656019336596
B41,v.le rubicone via da seregno,11378,5,45.5222573858701,9.17287585906184
B41,via da seregno via astesani,11372,6,45.5202303992686,9.17023995968123
B41,affori fn m3,16792,7,45.5203764090156,9.16951597753985
B41,via merloni,17586,8,45.5251553213195,9.16432397153307
B41,via sacro cuore,14858,9,45.5244153555182,9.16283802904871
B41,via l. modignani via sacro cuore,11048,10,45.5233393865627,9.16252301560112
B41,via l. modignani via salemi,11045,11,45.5229063540001,9.16021203944812
B41,"via l. modignani, 72",14981,12,45.5222853056551,9.15683306919693
B41,via l. modignani via bovisasca,11039,13,45.5215123569836,9.15283412075688
B41,via bovisasca via maffi,11038,14,45.5181264249469,9.15397612620592
B41,via maffi via sertoli,13127,15,45.5166543942622,9.15049019533547
B41,via gentile da fabriano,13128,16,45.5158274391284,9.15031923131109
B41,via cerkovo (q.re bovisasca),11035,17,45.5162384071875,9.15259019049289
B41,via bovisasca via el alamein,11040,18,45.5169004056011,9.15539810517854
B41,via bovisasca via gabbro,11027,19,45.5151964145971,9.15675112925345
B41,via gabbro via bovisasca,11028,20,45.5145794713717,9.15762811738351
B41,q.re bovisasca,11032,21,45.5150974361922,9.16053911699792
B40,niguarda (parco nord),17144,1,45.5245414516849,9.19173165293464
B40,niguarda (parco nord),11692,2,45.52443841085,9.19250762344693
B40,via ornato via aldo moro,11698,3,45.5264294115386,9.19166360967346
B40,cimitero di bruzzano,11695,4,45.5280833542881,9.18156975328599
B40,via acerbi via martinazzoli,11393,5,45.5283162944782,9.17516584436128
B40,via acerbi via capsoni,11391,6,45.5287373260292,9.17348481809655
B40,q.re bruzzano,11390,7,45.5265773591786,9.17338283716188
B40,via senna via fontanelli,11389,8,45.5250563623706,9.17359786242895
B40,via casarsa p.za fortunato,11383,9,45.524334383239,9.17460585273878
B40,ospedale galeazzi,11381,10,45.5226153895678,9.17414687966923
B40,affori fn m3,16792,11,45.5203764090156,9.16951597753985
B40,via l. modignani via comasina,11051,12,45.5236613311855,9.16419999566907
B40,via l. modignani via sacro cuore,11048,13,45.5233393865627,9.16252301560112
B40,via l. modignani via salemi,11045,14,45.5229063540001,9.16021203944812
B40,"via l. modignani, 72",14981,15,45.5222853056551,9.15683306919693
B40,via l. modignani via bovisasca,11039,16,45.5215123569836,9.15283412075688
B40,q.to oggiaro s,10743,17,45.5198823548103,9.14411524790918
B40,via amoretti via pascarella,10739,18,45.5194073196633,9.14089928103933
B40,via amoretti via antona traversi,10738,19,45.51913231322,9.13897233828418
B40,via amoretti via lessona,10496,20,45.5187373286117,9.1356713389257
B40,via val trompia via val di fassa,10492,21,45.5192863102397,9.13331840951999
B40,via val trompia via otranto,10490,22,45.5184033323661,9.13074441136511
B40,via arsia via cogne,10486,23,45.5164173239386,9.12757148040532
B40,via arsia via carbonia,10487,24,45.5152873426868,9.12794948226293
B40,l.go boccioni,10475,25,45.5119013666326,9.12826751195619
B40,via mambretti,17171,26,45.509482398094,9.13137947341904
B40,via palizzi via mambretti,10481,27,45.5083878407097,9.13521024298278
B40,certosa s,15778,28,45.5083064237892,9.13632542565208
B39,loreto m1 m2,17585,1,45.4859725296337,9.21900056314704
B39,via porpora v.le lombardia,12484,2,45.4860099787499,9.22311645724161
B39,v.le lombardia via vallazze,12483,3,45.4845639940263,9.22350750732242
B39,piola m2,12481,4,45.4811659967356,9.22354547601653
B39,piola m2,12487,5,45.4807649882457,9.22537646762842
B39,via pacini via ponzio,12495,6,45.4821679706391,9.22933239314386
B39,via pacini via astolfo,12506,7,45.4835229623679,9.23318839321844
B39,stazione lambrate m2,12706,8,45.4841740260103,9.23615032159276
B39,via viotti via bassini,12713,9,45.4828260602499,9.23764132646042
B39,via c. flaminio via saccardo,12716,10,45.4814770591835,9.24115926138055
B39,via c. flaminio via dei canzi,12719,11,45.4801240774008,9.24235325418202
B39,san faustino,19615,12,45.476910077733,9.2416397545418
B39,san faustino,19613,13,45.4741433504758,9.2416431837946
B39,trentacoste,19616,14,45.4732736578329,9.24437041824156
B39,via cima via zambaldi,12691,15,45.4718281519763,9.24754121170073
B39,via pitteri via borgomainerio,12855,16,45.473053169326,9.24890526357613
B39,via pitteri,12856,17,45.4747251498313,9.24821520530675
B38,centro saini,12930,1,45.4699872062221,9.26361705463378
B38,via corelli via salesina,12862,2,45.4710622040291,9.26181005376565
B38,via corelli via taverna,12861,3,45.4710852355623,9.25629011480775
B38,via corelli via aquila,12859,4,45.4712471920622,9.24987925973888
B38,via corelli via tucidide,12688,5,45.4709491817933,9.24593123665805
B38,via tucidide (centro scarioni),12679,6,45.4699401603734,9.24342829489426
B38,p.za s. gerolamo,12675,7,45.4698091452802,9.23694837050056
B38,v.le argonne via marescalchi,12459,8,45.4685761979735,9.23314741287669
B38,l.go porto di classe,12448,9,45.4684821878528,9.23051044631562
B38,v.le argonne via da cortona,12436,10,45.4684421419967,9.22718054121775
B38,p.le susa,12433,11,45.4684261242574,9.22554255867377
B38,p.le susa,17502,12,45.4674961454254,9.22445355587721
B353,assago (via del sole),16988,1,45.4050585759807,9.12969809375205
B353,via matteotti via g.verdi (assago),13415,2,45.4092954316052,9.13025968356393
B353,via matteotti via a.moro (assago),13416,3,45.4096807380794,9.13389666856358
B353,via del parco (assago),16987,4,45.4137966724828,9.13619958330886
B353,"via matteotti, 16 (assago)",13417,5,45.4086925546817,9.13621195177862
B353,via matteotti via dei caduti (assago),13418,6,45.4061085770763,9.13486099508872
B353,via di vittorio via giovanni xxiii (assago),13419,7,45.403153646798,9.13452502667065
B353,via bazzana via dei caduti (assago),17748,8,45.4103325611723,9.14392391805703
B353,assago nord m2,17749,9,45.4098276245087,9.14771666053462
B352,assago forum m2,13774,1,45.4004066857075,9.14596591871635
B352,assago forum m2,13409,2,45.4002676821413,9.1464279404711
B352,via di vittorio (forum) (assago),14856,3,45.4036920524765,9.14139191193776
B352,via di vittorio via giovanni xxiii (assago),13735,4,45.4040856338608,9.13395703104752
B352,via matteotti via dei caduti (assago),13736,5,45.4068865899162,9.13539497938228
B352,"via matteotti, 16 (assago)",13737,6,45.4085745733984,9.13628501124395
B352,via matteotti via a.moro (assago),13738,7,45.4097463901798,9.13347246165941
B352,via matteotti via g.verdi (assago),13739,8,45.4092575641264,9.12828807617759
B352,via garibaldi via matteotti (assago),13740,9,45.4099455274361,9.1272471104129
B352,via garibaldi via l. da vinci (assago),16834,10,45.4126685019138,9.12625210861136
B352,v.le lomellina via veneto (buccinasco),13741,11,45.4152444823357,9.12445109136888
B352,v.le lomellina via f.lli cervi (buccinasco),13742,12,45.4195244328391,9.12097708767782
B352,p.za s.biagio (buccinasco),13743,13,45.4204964017001,9.11807114388979
B352,via emilia via resistenza (buccinasco),13744,14,45.4194214121372,9.11510219231086
B352,via emilia via lazio (buccinasco),14492,15,45.4188614139377,9.11137019566464
B352,buccinasco (romagna),16743,16,45.4179694133058,9.10828228879958
B351,romolo m2,12943,1,45.4435152808071,9.16767936759714
B351,v.le cassala,10817,2,45.4447102821367,9.16366842992312
B351,ponte delle milizie,10845,3,45.4482702328788,9.15834748001891
B351,via l. il moro cavalcavia don milani,10530,4,45.4455882184033,9.14587065565397
B351,via l. il moro p.le negrelli,13175,5,45.4444531721001,9.14049574974269
B351,via l. il moro via merula,10329,6,45.4410471810289,9.12933489107455
B351,via buccinasco via santi,10193,7,45.4363832412902,9.1245699582788
B351,via mantegna (supermercato) (buccinasco),16035,8,45.4344532481686,9.12057506821718
B351,via degli alpini (buccinasco),16037,9,45.4320492841872,9.12011307061314
B351,via degli alpini via garibaldi (buccinasco),16721,10,45.4301952697223,9.12141305374826
B351,"via degli alpini, 20 (buccinasco)",15055,11,45.4279083003258,9.12310604970959
B351,via degli alpini via indipendenza (buccinasco),15056,12,45.4254823818368,9.1258409872046
B351,via indipendenza via morandi (buccinasco),14479,13,45.4228603659104,9.12762903952557
B351,via di vittorio via indipendenza (buccinasco),14480,14,45.4208613900288,9.12697802530416
B351,p.za s.biagio (buccinasco),14481,15,45.4215373856232,9.11945411370792
B351,via don minzoni via gobetti (buccinasco),14482,16,45.4233513518398,9.11530915821732
B351,buccinasco (via lario),13746,17,45.4225723267135,9.1083262647972
B351,via primo maggio via manzoni (buccinasco),14483,18,45.4225433291798,9.10407425639859
B351,via pietro micca (buccinasco),16736,19,45.4205953945364,9.09766357238194
B351,via diaz (buccinasco),16737,20,45.4192394012227,9.09567282752574
B351,via cadorna (buccinasco),16738,21,45.4172193736124,9.09951637802011
B351,via scarlatti via rovido (buccinasco),17288,22,45.4156284151508,9.10259735819235
B351,via romagna via scarlatti (buccinasco),17289,23,45.4161823340174,9.10822682068888
B351,buccinasco (via emilia),16739,24,45.4182994092943,9.10715229263771
B35,borgo - porretta,17983,1,45.5084416773199,9.14732263310215
B35,castellammare,18154,2,45.5098402754647,9.14773917927444
B35,castellammare,19488,3,45.5114513429824,9.14439046140618
B35,castellammare - eritrea,18151,4,45.5111026570592,9.13943607607981
B35,certosa s,10728,5,45.508453452453,9.13788441929566
B35,stephenson ,18149,6,45.5123432810411,9.12359048313851
B35,jona - cim. maggiore,17982,7,45.5094365632624,9.10798404223621
B35,pasolini - jona,18148,8,45.5085221432915,9.10652694699383
B35,pasolini r2,17935,9,45.5109347460209,9.10535209216795
B35,pasolini r11,18145,10,45.5122575469277,9.1007329686269
B35,pasolini r7,17931,11,45.5090775649115,9.10096916140804
B35,pier paolo pasolini,18143,12,45.506067452945,9.1037849234487
B35,via gallarate via capo rizzuto,15615,13,45.506324394635,9.10018891790587
B35,molino dorino m1,10192,14,45.504898366019,9.0938949665694
B34,via toffetti,12362,1,45.4443964121556,9.2307016036371
B34,"via sulmona, 23",12360,2,45.4446624349696,9.22726362720739
B34,p.le bologna,12348,3,45.4441384340946,9.22322073516006
B34,brenta m3,12041,4,45.4422964483133,9.21802279175884
B34,p.za bonomelli,12035,5,45.4411464300566,9.21455580027082
B34,v.le ortles via calabiana,12030,6,45.4404084091099,9.20990685717497
B34,v.le ortles via orobia,11748,7,45.4397014381029,9.2052769151523
B34,v.le ortles via condino,11746,8,45.439314397127,9.20271198853056
B34,via ripamonti via barletta,11716,9,45.4377364410799,9.20019603108639
B34,via ripamonti via quaranta,11715,10,45.4362044474706,9.20050701344464
B34,via ripamonti via dell'assunta,11713,11,45.433312477515,9.20105500408078
B34,via ripamonti via noto,11721,12,45.4317824776038,9.20153504024541
B34,via ripamonti via val di sole,12986,13,45.429358536841,9.20296403332149
B34,via montemezzi,11727,14,45.4303595115881,9.20470600155399
B34,via chopin via albinoni,11730,15,45.4281605497305,9.20599301649095
B34,"via chopin, 50",12015,16,45.4267095826967,9.20722300247867
B34,q.re fatima,12016,17,45.4257975830763,9.20867600133798
B328,Rozzano Via Cabrini,17856,1,45.3833853443819,9.16141774552161
B328,V.le Lombardia V.le Liguria (Rozzano),13401,2,45.3826149697494,9.15904481976633
B328,V.le Lombardia Via Roma (Rozzano),13402,3,45.3838818789381,9.15554889890218
B328,Via Roma Via Gramsci (Rozzano),13403,4,45.3849719170312,9.15534590300638
B328,Monte Penice,18049,5,45.3932888393728,9.15770233677936
B328,Via M.te Amiata Via M.te Penice (Rozzano),13404,6,45.3940818275697,9.15668383555647
B328,Via M.te Amiata Via Monviso (Rozzano),13405,7,45.3946737814491,9.15472783401228
B328,V.le Gran S.Bernardo Strada 8 (Assago),13406,8,45.3960957346323,9.14998088520443
B328,V.le Gran S.Bernardo Strada 6 (Assago),13407,9,45.3966267785679,9.14820089670395
B328,V.le Milanofiori V.le Gran S.Bernardo (Assago),13408,10,45.3985927183216,9.14547992920912
B328,assago forum m2,13409,11,45.4002676821413,9.1464279404711
B328,ASSAGO FORUM M2,16732,12,45.4005047186881,9.14601490044893
B327,trezzano (stab. zanoletti),14349,1,45.414184235856,9.04111113879001
B327,v.le l. da vinci via kennedy (trezzano s.n.),14351,2,45.4159382686437,9.04560109271488
B327,v.le l. da vinci via pergolesi (trezzano s.n.),14352,3,45.4184962399925,9.05220299466195
B327,via buonarroti via p. della francesca(trezzano s.n,14366,4,45.4209612285988,9.05516488240922
B327,via dante via bramante (trezzano s.n.),14367,5,45.423163207761,9.06032780718413
B327,v.le colombo via curiel (trezzano s.n.),14355,6,45.4232871854964,9.06461278082678
B327,v.le colombo via a.moro (trezzano s.n.),14356,7,45.4250261710539,9.06923771739489
B327,v.le colombo via cellini (trezzano s.n.),14357,8,45.4263021977586,9.07261665555115
B327,nuova vigevanese via gramsci (cesano b.),14358,9,45.4312481784974,9.08515751082249
B327,corsico (v.le italia),14359,10,45.4360001381669,9.09828329332903
B327,nuova vigevanese via cesano (corsico),14360,11,45.4370901820133,9.10196726855605
B327,nuova vigevanese v.le liberazione (corsico),14361,12,45.4381091426221,9.1054101834605
B327,"nuova vigevanese, 17 (corsico)",14362,13,45.4420031273216,9.11325607289409
B327,lorenteggio,15585,14,45.4433181234114,9.11610103224124
B327,via bisceglie via bensi,10203,15,45.4476610835668,9.12035294680892
B327,via bisceglie via ciconi,10214,16,45.4523800398285,9.11751499671102
B327,bisceglie m1,13264,17,45.4550279741738,9.11289401203625
B325,corsico (p.za europa),13206,1,45.4262102583823,9.09876336818332
B325,via 4 novembre via piave (corsico),13207,2,45.4273932365227,9.10017636277773
B325,corsico (cimitero),13186,3,45.4285832396464,9.10312531308302
B325,"via vitt.emanuele, 2 (corsico)",13208,4,45.4304482505166,9.10599426536225
B325,via vitt.emanuele v.le liberazione (corsico),13209,5,45.4334292036689,9.10878616198478
B325,via milano via concordia (corsico),13195,6,45.4358582061257,9.11497609894459
B325,strada vigevanese via 2 giugno (buccinasco),13196,7,45.4366382275576,9.11804108021589
B325,strada vigevanese via molino (buccinasco),13197,8,45.4371851910966,9.12014502191093
B325,via l. il moro via dei santi,16980,9,45.4381942082998,9.12378793643128
B325,via l. il moro via s. colombano,10327,10,45.4387021862291,9.12531898220723
B325,via l. il moro via merula,10330,11,45.441054171815,9.12979788247979
B325,via l. il moro via manfredonia,10339,12,45.4420852111367,9.13288887357411
B325,via l. il moro p.le negrelli,13198,13,45.4444921653009,9.1412067482052
B325,via l. il moro cavalcavia don milani,10529,14,45.4457181904483,9.14701660852903
B325,via l. il moro via pestalozzi,10830,15,45.4474852200726,9.15531551757647
B325,v.le cassala,10814,16,45.4450902173141,9.16223146896416
B325,romolo m2,11146,17,45.4440342258054,9.16747238849291
B325,romolo m2,13200,18,45.4436472876315,9.16732135984004
B323,"via olgettina, 5",17693,1,45.4550789944691,9.11312903347616
B323,via isonzo via grandi (cesano b.),17672,2,45.4463481545264,9.09790176607017
B323,via grandi via pogliani (cesano b.),17673,3,45.4463136761834,9.09502658430587
B323,via roma via battisti (cesano b.),17674,4,45.4441278391449,9.09309606042722
B323,via roma via colombo (cesano b.),13288,5,45.4452870377134,9.09145433239621
B323,via libert (cesano b.),17675,6,45.4471997005968,9.08800812834719
B323,via d'acquisto via libert (cesano b.),17676,7,45.4456022132164,9.08439603189107
B323,vespucci - d'acquisto,17994,8,45.4428742594553,9.0857207744684
B323,via vespucci via magellano (cesano b.),17678,9,45.4401604464618,9.08283298521178
B323,via vespucci via don sturzo (cesano b.),17679,10,45.4369223324006,9.08528361823558
B323,via don sturzo via gobetti (cesano b.),13279,11,45.4346291638985,9.084002474581
B323,cesano b. (via gramsci),17680,12,45.4322253869638,9.08307949420242
B323,via b. croce via de nicola (cesano b.),17681,13,45.431471682568,9.08635999711128
B323,cesano b. (stazione fs),17682,14,45.430410666431,9.09188047257752
B322,corsico (v.le italia),15644,1,45.4362211334534,9.09790128697548
B322,via cellini via delle querce (corsico),13148,2,45.4376081541034,9.091793374034
B322,"via curiel, 2 (corsico)",13149,3,45.4394780911512,9.09255636633954
B322,via milano via roma (cesano b.),13296,4,45.4408961165279,9.09609129275429
B322,via roma via battisti (cesano b.),13287,5,45.4435290828769,9.09394631223958
B322,via roma via colombo (cesano b.),13288,6,45.4452870377134,9.09145433239621
B322,v.le pasubio via vitt.veneto (cesano b.),14854,7,45.4476460179608,9.08802532262051
B322,via m.te grappa v.le pasubio (cesano b.),15232,8,45.4500349360216,9.08431334927431
B322,via libert (cesano b.),17687,9,45.4469103781563,9.08693094783439
B322,via roma via colombo (cesano b.),13273,10,45.4461730482753,9.09013635447746
B322,via roma via battisti (cesano b.),14853,11,45.4440880579334,9.09287830812622
B322,via roma via ariosto (cesano b.),17688,12,45.4422803848982,9.09543569100977
B322,via milano via della repubblica (cesano b.),13752,13,45.4420721078601,9.09818625140315
B322,via della repubblica (cesano b.),17689,14,45.443631876485,9.09721518939189
B322,via grandi via pogliani (cesano b.),13289,15,45.4462320054847,9.09513526897961
B322,via isonzo via grandi (cesano b.),13290,16,45.4462200577498,9.098204230827
B322,via sanzio via buonarroti (cesano b.),13291,17,45.4464150488977,9.10240116169871
B322,via colombo via borsini (corsico),13292,18,45.4469630609447,9.10607612945849
B322,via volta via da vinci (corsico),13293,19,45.4456330837132,9.10978607830396
B322,via kuliscioff via mozzoni,13294,20,45.4471770867432,9.11483304805294
B322,via kuliscioff via bisceglie,13295,21,45.4484020780071,9.11869498226647
B322,via bisceglie via ciconi,10214,22,45.4523800398285,9.11751499671102
B322,bisceglie m1,13264,23,45.4550279741738,9.11289401203625
B321,p.za s.biagio (buccinasco),13743,1,45.4204964017001,9.11807114388979
B321,via emilia via resistenza (buccinasco),13744,2,45.4194214121372,9.11510219231086
B321,via resistenza via bologna (buccinasco),13745,3,45.4217823769295,9.11309122487517
B321,buccinasco (via lario),13746,4,45.4225723267135,9.1083262647972
B321,via trieste via degli aceri (buccinasco),13747,5,45.4254433261174,9.10615226398301
B321,"v.le resistenza, 15 (corsico)",13189,6,45.4273643104017,9.10737320214643
B321,via galilei via foscolo (corsico),13190,7,45.428382285976,9.11110919811663
B321,via galilei via verdi (corsico),13191,8,45.4289562683458,9.11327712285354
B321,via parini via buonarroti (corsico),13192,9,45.4304352581162,9.11458313940622
B321,p.za liberta' (corsico),13193,10,45.4318602628646,9.11483412099337
B321,via diaz via sant'adele (corsico),13194,11,45.4348662349671,9.11289314246853
B321,via vitt.emanuele v.le liberazione (corsico),13748,12,45.4342172044552,9.10840418919016
B321,via copernico v.le liberazione (corsico),13749,13,45.4366361643639,9.10650918419293
B321,via fermi via della repubblica (corsico),13145,14,45.439143137619,9.10117224027499
B321,corsico (v.le italia),15644,15,45.4362211334534,9.09790128697548
B230,BASIGLIO (Don Coira),16302,1,45.3470851372255,9.16760883878612
B230,Via Visconti Via Del Maino (Basiglio),16303,2,45.3519782992438,9.16628193108206
B230,Via Longobardii Via Visconti (Basiglio),16304,3,45.3555742774969,9.16227896097049
B230,Via Longobardii Via Giotto (Basiglio),16305,4,45.3584062090277,9.1644149290633
B230,Via Manzoni Via Verga (Basiglio),16306,5,45.3634801892589,9.16152092444136
B230,Via Manzoni Via Visconti (Basiglio),16307,6,45.3609763287087,9.15887028301201
B230,Via Visconti Via Porta (Basiglio),16308,7,45.3632331882957,9.15597703549143
B230,Resid. Ginestre (Basiglio),16309,8,45.3670847607389,9.15650630467795
B230,Resid. Faggi (Basiglio),16310,9,45.3655775967783,9.16149134300787
B230,Manzoni ,18558,10,45.3726409966595,9.16842029390396
B230,Via G.Rossa Via Cooperazione (Rozzano),16756,11,45.3763589983118,9.15261698466449
B230,Via G.Rossa Via Cooperazione (Rozzano),16752,12,45.3763880320992,9.1529129510519
B230,Via Grandi V.le Toscana (Rozzano),16312,13,45.3810050128645,9.16995174151179
B230,Via Grandi Via Buozzi (Rozzano),13367,14,45.3841819703198,9.17103572921545
B230,via dei missaglia (scuola santarosa),16908,15,45.4068206919911,9.17503449691336
B230,via dei missaglia via saponaro,16909,16,45.4102176693645,9.17476950560773
B230,p.za abbiategrasso m2,11132,17,45.4299464820732,9.17696737777255
B230,p.za abbiategrasso m2,16843,18,45.4295544407083,9.17759132430129
B222,Via Roma Via Del Popolo (Pieve E.),13374,1,45.3555073531536,9.20144448796752
B222,Via Roma Via Viquarterio (Pieve E.),13425,2,45.3533753982784,9.20140851276375
B222,Via dei Pini Via degli Olmi (Pieve E.),13426,3,45.3498774185521,9.1995035144976
B222,Via dei Pini Via dei Platani (Pieve E.),13427,4,45.3483794445031,9.19791159907603
B222,Via dei Pini Via degli Abeti (Pieve E.),13428,5,45.3463314532397,9.19567756486336
B222,Via dei Pini Via dei Gelsi (Pieve E.),13429,6,45.3443874550522,9.19330963139632
B222,Via dei Pini Via delle Betulle (Pieve E.),13430,7,45.3431384980536,9.19399060128761
B222,Via delle Betulle Via degli Aceri (Pieve E.),13431,8,45.3449624578767,9.19613062721723
B222,Via degli Olmi Via Leoncavalloo (Pieve E.),13432,9,45.3459124710007,9.19839658404946
B222,Via Zandonai (Pieve E.),16032,10,45.3439544882808,9.19884562444292
B222,Via Mascagni (Pieve E.),17491,11,45.3422754892703,9.19898658593834
B222,PIEVE E. (Stazione FS),17293,12,45.3397945608845,9.20350757550732
B220,ROZZANO (Solidarieta'),15972,1,45.3723360040393,9.14237009455476
B220,Via Togliatti Via Turati (Rozzano),15973,2,45.3744449855717,9.14200008907541
B220,Via Rossellii Via Turati (Rozzano),13470,3,45.3755509978705,9.1425041000361
B220,Via Rosselli Via Matteotti (Rozzano),13471,4,45.3770849568299,9.14339009092694
B220,Via Matteotti Via Borgomaneri (Rozzano),14876,5,45.3754469648739,9.14579004771276
B220,Via 25 Aprile Via Cooperazione (Rozzano),14877,6,45.3736369933596,9.14745107536176
B220,Via Cooperazione Via G.Rossa (Rozzano),14878,7,45.375081019765,9.15046597732042
B220,Via G.Rossa Via Cooperazione (Rozzano),16752,8,45.3763880320992,9.1529129510519
B220,S.P. C.na Perseghetto (Ospedale)(Rozzano),16747,9,45.3759140022008,9.16616377727551
B220,Via Manzoni (Ospedale)(Rozzano),16748,10,45.3738658487063,9.16765817770424
B220,Manzoni ,18558,11,45.3726409966595,9.16842029390396
B220,Via Grandi V.le Toscana (Rozzano),16312,12,45.3810050128645,9.16995174151179
B220,Via Grandi Via Buozzi (Rozzano),13367,13,45.3841819703198,9.17103572921545
B220,Via Buozzi Via Ariosto (Rozzano),13368,14,45.3824439872612,9.17615367082387
B220,Via Buozzi Via Alfieri (Rozzano),13369,15,45.3804460351336,9.17939358438526
B220,Via Alfieri P.za Berlinguer (Rozzano),13477,16,45.3790230041256,9.17819158149879
B220,Via Alfieri Via Marche (Pieve E.),14169,17,45.3762960578748,9.17578770404647
B220,"Via Marche, 20 (Pieve E.)",14170,18,45.3754190627735,9.1779596482404
B220,Via M.te Grappa (Pieve E.),14171,19,45.3736970762933,9.18045863272399
B220,Via Di Vittorio Via Menotti (Pieve E.),14172,20,45.3717701376864,9.18367258834729
B220,Via Buozzi Via Di Vittorio (Pieve E.),14173,21,45.3734441407915,9.187099572996
B220,PIEVE E. (V.Kennedy),13478,22,45.3715491248601,9.18986451972342
B201,ROZZANO (Via Milano),13487,1,45.3861718736305,9.15053393775926
B201,V.le Lombardia Via Roma (Rozzano),13488,2,45.3845308792905,9.15331889532371
B201,V.le Lombardia Via Roma (Rozzano),13364,3,45.3836849463253,9.15569687625846
B201,Lombardia,18135,4,45.3827026930857,9.15844607453891
B201,Rozzano Via Cabrini,17858,5,45.3827166366464,9.16195344509342
B201,Rozzano Via Cabrini,17856,6,45.3833853443819,9.16141774552161
B176,campo 12,15281,1,45.5330857540722,9.18190380912346
B176,campo 10,15282,2,45.5320124941477,9.18041964221669
B176,campo 3,15283,3,45.5305682224868,9.18018131635194
B176,ingresso,15278,4,45.529103056878,9.18177253858311
B175,via ucelli di nemi via serrati,12913,1,45.4425095709875,9.2642491775988
B175,ospedale monzino,12906,2,45.4445714980969,9.26243023583371
B175,v.le ungheria via mecenate,17697,3,45.4469044669156,9.25459494981988
B175,v.le ungheria l.go guerrieri gonzaga,17698,4,45.4462532207007,9.25266571718344
B175,v.le ungheria via del liri,17699,5,45.4460932098774,9.24901327695185
B175,v.le ungheria,17700,6,45.4459178006262,9.24531070366758
B175,v.le ungheria via salomone,12615,7,45.4457074448914,9.24303047149909
B175,via salomone v.le ungheria,12616,8,45.4463454259426,9.24145545303534
B175,via salomone via dione cassio,12634,9,45.4481684210758,9.24149348428305
B175,via salomone via prudenzio,12635,10,45.4506214358666,9.24150546700554
B175,via salomone via quintiliano,12636,11,45.4523893872441,9.24154843614236
B175,"via salomone, 21",12637,12,45.4542433465125,9.24156145461431
B175,p.za ovidio,12638,13,45.4564673286328,9.2415913972597
B175,p.za ovidio,12661,14,45.4580512758493,9.24352638974476
B175,via dalmazia via zante,12664,15,45.4586853262169,9.24611635286482
B175,via zante via meleri,12645,16,45.458077336839,9.24810834303846
B175,"via pecorini, 12",12836,17,45.4579763327349,9.25117330179682
B175,via pecorini via a. cossa,12848,18,45.4603372982752,9.2478133181753
B175,cossa,18113,19,45.4605767679667,9.245076534651
B175,facchinetti - bellosio,18475,20,45.4612637611324,9.24220360825095
B175,facchinetti,18476,21,45.4618511226668,9.23923120292745
B175,viale corsica,18114,22,45.4622005244753,9.2360641530148
B175,mezzofanti,18115,23,45.4638292319042,9.23523886816738
B175,via mezzofanti via sismondi,12649,24,45.4659582159964,9.23518639713123
B175,via don s. martino via marescalchi,12668,25,45.4682221454536,9.23513240014895
B175,via calzecchi via amadeo,12670,26,45.4717241533729,9.23511138939631
B175,l.go murani,12672,27,45.4731950936584,9.23514439866642
B175,via golgi via celoria,12696,28,45.4775800612404,9.23438735607405
B175,via bassini via golgi,12697,29,45.4799390608196,9.23435734563017
B175,via valvassori peroni,12702,30,45.4809660669839,9.23602636240148
B175,stazione lambrate m2,12712,31,45.4847259633043,9.23649830400053
B175,p.za gobetti,12701,32,45.4854049706487,9.23518931554318
B175,via ronchi p.za m.te titano,12714,33,45.4870879725111,9.23723026932753
B175,udine m2,12735,34,45.4905139607554,9.23706127344271
B175,via feltre via crescenzago,12740,35,45.4911859712914,9.24075624462352
B175,via feltre via pisani dossi,12746,36,45.4912709061449,9.24302119645828
B175,"via feltre, 100",12871,37,45.491535928688,9.24962913609457
B175,cimitero di lambrate,12873,38,45.4898629785368,9.255155085044
B174,via valtorta via stamira d'ancona,14861,1,45.4999987959569,9.2268213395363
B174,turro m1,12541,2,45.5001167414803,9.22169842847623
B174,gorla m1,12543,3,45.504566727848,9.22241834261286
B174,v.le monza via erodoto,12559,4,45.5082395355131,9.22347458402094
B174,precotto m1,12561,5,45.5114256699928,9.22447128541623
B174,l.go mattei,12556,6,45.5144806458085,9.22256333071839
B174,via breda via rucellai,12294,7,45.5117086154182,9.21533940403303
B174,cimitero di greco,12277,8,45.50408670864,9.21181451361565
B174,sottopasso fs via spoleto,12255,9,45.4951268302489,9.21674253772226
B174,via popoli uniti v.le monza,12264,10,45.4960358136778,9.21913048307793
B174,via giacosa via rovereto,12514,11,45.4949468312108,9.22137744213416
B174,via giacosa via crespi,12518,12,45.4923608727656,9.22259145680742
B174,via padova via pasteur,12513,13,45.4895328813862,9.22104047269883
B174,p.le loreto via padova,12257,14,45.4869509363309,9.21759250412722
B172,q.re bicocca,15061,1,45.5263644423666,9.20379448865926
B172,p.za s. giuseppe,12010,2,45.526123444477,9.20575248180257
B172,via arezzo v.le suzzani,12317,3,45.5254764494564,9.20800843382303
B172,ponale m5,16778,4,45.5228944784625,9.2095384382486
B172,v.le testi via s. glicerio,17059,5,45.5188035373443,9.20723947560985
B172,bicocca m5,17152,6,45.5161905641282,9.20571750046143
B172,v.le testi via s. marcellina,13119,7,45.511542580605,9.20318356756912
B172,v.le testi via pianell,13120,8,45.5087996071929,9.2016056175308
B172,ca' granda m5,13121,9,45.5067806657959,9.2004606438575
B172,girola,11670,10,45.5112895449277,9.19075076128098
B172,via giovanni danzi,15413,11,45.5134805305626,9.19338368596613
B172,p.za belloveso,15071,12,45.515942512844,9.19348068318341
B172,via teruggia via val di ledro,11687,13,45.5173894727941,9.18917971796621
B172,via maffi,11683,14,45.5175025041699,9.18635572408749
B172,"via g.pasta, 51",11679,15,45.5216024265,9.18078681192403
B172,cimitero di bruzzano,11697,16,45.5289173508477,9.18127072841541
B171,campo 1,10303,1,45.50456565521,9.12007174121246
B171,campo 13,10322,2,45.5057353799983,9.11724241053287
B171,campo 21,17492,3,45.5067592988036,9.11496275257286
B171,campo 29,17493,4,45.5074809998622,9.11333206960605
B171,campo 69,10315,5,45.5086897373821,9.11066218898644
B171,campo 91,10127,6,45.5092851168606,9.10929038398016
B171,campo 92,10126,7,45.509145792923,9.10909015517836
B169,p.za castelli,17828,1,45.4994098499905,9.15131447567887
B169,via mac mahon via bramantino,17829,2,45.4976290897406,9.15263544106168
B169,via mac mahon via artieri,17830,3,45.4962227534399,9.15464377534406
B169,via mac mahon v.le m.te ceneri,10991,4,45.4937396992926,9.15677625416427
B169,p.za firenze,10989,5,45.4884697456722,9.15636130030465
B166,via erba (raddoppio) (paderno d.),14929,1,45.5712209067144,9.19089034769795
B166,via erba (c.na calderara) (paderno d.),14930,2,45.5766998323498,9.19265531518606
B166,via garibaldi (cava madonnina) (nova m.se),14931,3,45.5829607860494,9.19480427486587
B166,via garibaldi (raddoppio) (nova m.se),14932,4,45.5900897103217,9.19724524436965
B166,via diaz (s.bernardo) (nova m.se),14933,5,45.5951766431535,9.19898615049957
B166,via garibaldi (spaccone) (desio),14934,6,45.6072485198767,9.20301203083549
B166,via milano via agnesi (desio),16951,7,45.6128414333601,9.20114406379062
B166,via diaz via fiume (desio),16952,8,45.6187454018422,9.20144199001263
B166,via diaz via boccaccio (desio),16953,9,45.6192233772866,9.20575190200187
B166,c.so italia (municipio) (desio),14936,10,45.6202723853126,9.20838090700422
B166,c.so italia (deposito) (desio),14937,11,45.6256703101072,9.20721287844099
B166,desio (ospedale),16954,12,45.6260412840683,9.19851798321074
B165,comasina m3,16797,1,45.5295822972439,9.16300196533933
B165,via comasina via novate,16841,2,45.5310712771712,9.1622819626563
B165,s.s.35 dei giovi sovrap. mi-bg (cormano),13298,3,45.5355931876417,9.16075398212354
B165,s.s. 35 via somalia (cormano),13785,4,45.5402931494636,9.15907997172831
B165,via filzi s.s. 35 (cormano),13786,5,45.5439580615095,9.15773696016526
B165,ss.35 (ospitaletto) (cormano),13787,6,45.5496770304566,9.15545498210595
B165,via reali (tonolli) (paderno d.),13788,7,45.553689005511,9.15420690877883
B165,battiloca,18019,8,45.5622078700598,9.15140435762676
B165,via reali (c.na amata - scambio) (paderno d.),13790,9,45.5709337700612,9.14811693519002
B165,via reali (c.na amata) (paderno d.),13791,10,45.5748187005401,9.14687990766071
B165,via castelletto via volta (castelletto) (senago),13792,11,45.5805766562518,9.14559389979233
B165,via castelletto (molino) (paderno d.),13793,12,45.5842176043216,9.14565392213674
B165,c.so milano (vill. giovi) (limbiate),13794,13,45.5901125162475,9.14563879312027
B165,c.so milano (deposito) (varedo),13795,14,45.5960644769484,9.14569480557197
B165,via dei mille (limbiate),14911,15,45.5988794186765,9.13480791939314
B165,p.za 5 giornate (limbiate),14951,16,45.6038473424153,9.12329307566693
B165,via m.te bianco via m.te rosa (limbiate),14952,17,45.6148082044581,9.12084504041215
B165,limbiate (ospedale),14953,18,45.6145561874348,9.12494896582683
B165,limbiate (ospedale),13797,19,45.6146462043982,9.12521494556839
B164,v.le ungheria via salomone,12614,1,45.4456524322128,9.24342344351552
B164,"v.le ungheria, 20",17694,2,45.4456683692751,9.24629944537032
B164,v.le ungheria via del liri,17695,3,45.4457622832008,9.24831630015198
B164,v.le ungheria l.go guerrieri gonzaga,17696,4,45.4459277640925,9.25174255872477
B164,v.le ungheria via mecenate,12824,5,45.4466185054095,9.25463631873843
B164,via mecenate v.le ungheria,12825,6,45.4482394578006,9.25469427149875
B164,via mecenate via quintiliano,12839,7,45.449587456354,9.25284530180028
B164,via mecenate via fantoli,12835,8,45.4505564206699,9.25152431879109
B164,"via mecenate, 77",17048,9,45.4530453914032,9.24817637029001
B164,mecenate ,18452,10,45.4558586041699,9.24433720227321
B164,p.za ovidio,17050,11,45.4577413081979,9.24175640378674
B164,via marco bruto,17051,12,45.4596512834015,9.2390954267548
B164,via marco bruto,17044,13,45.4593932991779,9.23899440362304
B163,cascina gobba m2,13807,1,45.5114237561134,9.26034589446469
B163,padana superiore,18559,2,45.512241161762,9.28833893335782
B163,c.na burrona m2,14988,3,45.5173017952833,9.29823436842487
B163,cernusco s. n.,18561,4,45.5148383511077,9.331360303952
B163,stz villa fiorita m2,19009,5,45.5203901332784,9.34604832932295
B163,roma ,19410,6,45.5193649075641,9.36447859338067
B163,villa pompea,18567,7,45.5244433276089,9.38786529922062
B163,europa,19415,8,45.535905424508,9.40351615662591
B163,trieste,19420,9,45.5341271373364,9.41659906274222
B163,gessate,18573,10,45.5450838055278,9.43625377720099
B140,p.za mistral,17651,1,45.434614140983,9.23611297718221
B140,via s. arialdo via s. bernardo,12594,2,45.4180597162548,9.23693665773299
B140,abbazia di chiaravalle,12592,3,45.416517739301,9.2354077296658
B140,"via s. arialdo, 90",12322,4,45.4144368143903,9.2325267508126
B140,cimitero di chiaravalle,15641,5,45.4120577768406,9.22832885490595
B140,via unica poasco via pertini (s.donato),15642,6,45.4043809082695,9.22898687628216
B140,via unica poasco via don milani (s.donato),15639,7,45.4013179470775,9.23042084496243
B140,via unica poasco via pertini (s.donato),15640,8,45.4044618681712,9.22909489028631
B140,via lombardia via bracciano (s.giuliano),16122,9,45.403326384799,9.2479369120264
B140,via lombardia via trasimeno (s.giuliano),16123,10,45.4006440075712,9.25123962652064
B140,via lombardia via basilicata (s.giuliano),16126,11,45.3974440557621,9.25342856871007
B140,via basilicata via toscana (s.giuliano),16128,12,45.3951730831863,9.25053568390518
B140,via bezzecca via pellico (s.giuliano),16129,13,45.3943430912536,9.24903367421156
B140,via manara via pellico (s.giuliano),16131,14,45.3941860565063,9.24498769636588
B140,via volturno via bezzecca (s.giuliano),16134,15,45.3903140974131,9.2495956538416
B140,via volturno via toscana (s.giuliano),16136,16,45.3902490984098,9.2532086285999
B140,via volturno via po (s.giuliano),16137,17,45.3912211309375,9.25696755283427
B140,via giotto via della liberazione (s.giuliano),16139,18,45.3946600705315,9.26422853194768
B140,via civesio via don minzoni (s.giuliano),16216,19,45.3964270941822,9.26467650558296
B140,via della liberazione via tecchione (s.giuliano),16141,20,45.3980200674204,9.26335047825609
B140,via della liberazione via bergamo (s.giuliano),16143,21,45.4017570230192,9.26426146384743
B140,via grandi via per civesio (s.donato),16145,22,45.4061629486983,9.2627564506307
B140,tagliamento- ticino,18468,23,45.4101576271907,9.26617005307539
B140,piave,18469,24,45.4087084304491,9.26781258033466
B140,p.za tevere (s.donato),16149,25,45.4099489593297,9.27006629541743
B140,via morandi via pascoli (s.donato),16152,26,45.4115229257134,9.27340476750188
B140,via europa (ospedale) (s.donato),16154,27,45.4129849334434,9.27547425288294
B140,via europa p.za dalla chiesa (s.donato),16157,28,45.4158498901403,9.27190525850878
B140,via europa via m. di cefalonia (s.donato),16155,29,45.4170198605243,9.27048927799595
B140,s.donato (martiri di cefalonia),16985,30,45.4180378305952,9.27135025202398
B132,san donato m3,16266,1,45.4289386602509,9.2573753915829
B132,via fabiani v.le de gasperi (s.donato),16195,2,45.4242037424497,9.25860739141713
B132,v.le de gasperi via vannucchi (s.donato),16196,3,45.422662758112,9.25640539744567
B132,via emilia v.le de gasperi (s.donato),14205,4,45.4214027642185,9.25631042708494
B132,via correggio via vannucchi (s.donato),16265,5,45.4205748043985,9.25847042697374
B132,via jannozzi via sergnano (s.donato),16267,6,45.4195828196146,9.26309237860267
B132,via c.battisti via matteotti (s.donato),16268,7,45.4169608484468,9.26412534302704
B132,via m. di cefalonia via gramsci (s.donato),16160,8,45.4159798478064,9.26624234308349
B132,via europa via m. di cefalonia (s.donato),16156,9,45.4168486326746,9.27047502399232
B132,via europa p.za dalla chiesa (s.donato),16158,10,45.4159541493016,9.27162151964672
B132,via europa (ospedale) (s.donato),16153,11,45.4125769025371,9.27511522935599
B132,via morandi via pascoli (s.donato),16151,12,45.4108979434866,9.27144329790852
B132,p.za tevere (s.donato),16150,13,45.4098689395408,9.26961436407702
B132,via ticino  via parri,18467,14,45.4098780184304,9.2670573868291
B132,via f.parri (s.donato),16269,15,45.4069436722102,9.26460600553655
B132,via di vittorio nord (s.donato),16270,16,45.4059939587857,9.26603637684795
B132,via di vittorio centro (s.donato),16271,17,45.4041110200906,9.26831036146924
B132,s.donato (via di vittorio),16272,18,45.4017870561579,9.27109732417599
B132,via di vittorio (centro sportivo) (s.donato),16273,19,45.4007220673151,9.27248934182869
B132,s.donato (via di vittorio),16274,20,45.4019330122846,9.27123736601554
B130,s.giuliano m.se (zivido),16247,1,45.3786093950177,9.30645208778119
B130,via emilia via tolstoi (s.giuliano),16264,2,45.3799763375503,9.30187113806105
B130,via tolstoi via emilia (s.giuliano),16248,3,45.3812943565905,9.30215109711966
B130,via cechov via tolstoi (s.giuliano),16249,4,45.3824723357712,9.3044000705369
B130,via gorki (c.na carlotta) (s.giuliano),16250,5,45.3860113019287,9.30188605205131
B130,via gorki via corridoni (s.giuliano),16251,6,45.3877872587895,9.30085406782099
B130,via gorki via bixio (s.giuliano),16252,7,45.390590217885,9.29795406679249
B130,via dei giganti via gorki (s.giuliano),16253,8,45.3924321728341,9.29370713905914
B130,via campoverde via nisoli (s.giuliano),16254,9,45.3951231762309,9.29043413516094
B130,via cavour via manzoni (s.giuliano),16255,10,45.3967291276918,9.2884351832776
B130,via cavour via polo (s.giuliano),16256,11,45.3980991053699,9.28626219396397
B130,via de nicola via cavour (s.giuliano),16257,12,45.4002620703573,9.28449317930902
B130,s.giuliano (de nicola),16258,13,45.4019300956882,9.28760616095874
B130,"via repubblica, 19 (s.giuliano)",16259,14,45.403740051503,9.28575516832257
B130,via risorgimento via goldoni (s.giuliano),16260,15,45.4056820018459,9.2850251865832
B130,via monticello strada per bolgiano (s.donato),16261,16,45.4111519784964,9.28372517262948
B130,via monticello via leopardi (s.donato),16262,17,45.4127609303395,9.28115229493297
B130,via monticello via maritano (s.donato),16263,18,45.414448374131,9.27904731541433
B130,via maritano via monticello (s.donato),16686,19,45.4145389043921,9.27781119035021
B130,via europa (ospedale) (s.donato),16154,20,45.4129849334434,9.27547425288294
B130,via europa p.za dalla chiesa (s.donato),16157,21,45.4158498901403,9.27190525850878
B130,via europa via m. di cefalonia (s.donato),16155,22,45.4170198605243,9.27048927799595
B130,s.donato (martiri di cefalonia),16218,23,45.4180108581366,9.27130127265092
B130,v.le de gasperi (palazzo uffici) (s.donato),16190,24,45.4215267971406,9.27293019932668
B130,v.le de gasperi via agadir(scuole) (s.donato),16191,25,45.4234687942105,9.26997925595875
B130,v.le de gasperi via spilamberto (s.donato),16192,26,45.4250947386822,9.26598630143322
B130,via triulziana via dei tigli (s.donato),16193,27,45.4272057020278,9.26354332792686
B130,san donato m3,16228,28,45.428871690288,9.25726134516457
B121,s.giuliano stazione fs,14857,1,45.3914421875791,9.28669720074973
B121,via roma via rizzi (s.giuliano),14864,2,45.3937861452207,9.28516224518851
B121,via roma p.za 25 aprile (s.giuliano),14234,3,45.3960491482416,9.28271128815219
B121,via emilia via risorgimento (s.giuliano),14235,4,45.4022170537433,9.27636226012076
B121,via emilia via crociate (s.giuliano),14236,5,45.4053510041954,9.2732233486659
B121,p.za tevere (s.donato),14237,6,45.4089939185151,9.2692293712112
B121,via emilia via parri (s.donato),15572,7,45.4121368953714,9.26601238250027
B121,"via emilia, 20 (s.donato)",14238,8,45.4157858596973,9.26223138280708
B121,via emilia via m.te grappa (s.donato),15183,9,45.4185928083515,9.25941543644321
B121,via emilia v.le de gasperi (s.donato),14239,10,45.4215287963141,9.25633344702474
B121,"via rogoredo, 34",13263,11,45.4248767159707,9.25259249634819
B121,via rogoredo via marignano,14240,12,45.4261026689858,9.25128950802462
B121,via impastato via rogoredo,12808,13,45.4280916731565,9.24974147350268
B121,san donato m3,12809,14,45.4288656780491,9.25568837272896
B121,san donato m3,14204,15,45.4289686395205,9.25604740567611
