route_id,stop_name,stop_id,stop_sequence,stop_lat,stop_lon
T9,stazione centrale m2 m3,11923,1,45.4869978630769,9.20277672045857
T9,via filzi via pirelli,15529,2,45.4842249064654,9.20011976706521
T9,via filzi via adda,11879,3,45.4831148921049,9.19941078708611
T9,p.za s. gioachimo,12991,4,45.4814609463724,9.19807882565433
T9,v.le monte santo,11863,5,45.4797369226096,9.19482785041019
T9,repubblica m3,17436,6,45.4779729484842,9.19768184393929
T9,v.le vittorio veneto,11882,7,45.4767429882315,9.200348804051
T9,oberdan,18120,8,45.4742560738218,9.20577052807713
T9,v.le piave,11855,9,45.4722060375594,9.20652676197893
T9,p.za tricolore,12130,10,45.4682360837099,9.20688476544931
T9,v.le premuda,12093,11,45.465459133857,9.20717277126418
T9,p.za cinque giornate,12091,12,45.4627621564407,9.2074778131042
T9,v.le monte nero via spartaco,12088,13,45.4599591972724,9.20726778411052
T9,v.le monte nero via bergamo,11825,14,45.4574152135509,9.20542586931836
T9,v.le monte nero via pier lombardo,11782,15,45.4552702450638,9.20426089178549
T9,p.ta romana m3,11773,16,45.4513962664171,9.20241794317137
T9,v.le sabotino,11772,17,45.4509842638908,9.20052997175267
T9,via ripamonti v.le sabotino,11767,18,45.4509802466478,9.19711898761297
T9,v.le bligny,11753,19,45.4509852583448,9.19440003626035
T9,via bocconi,11471,20,45.4509822432453,9.19060208558409
T9,porta lodovica,11460,21,45.4517802276264,9.18711312846187
T9,v.le col di lana,11452,22,45.452138235023,9.18346815182067
T9,p.za ventiquattro maggio,17559,23,45.4524041894855,9.17959821044041
T9,via vigevano v.le gorizia,11199,24,45.4527502071882,9.17624923820362
T9,p.le cantore,11192,25,45.454997152051,9.17274028698906
T9,p.ta genova m2,11181,26,45.4535581445273,9.16978532380795
T7,precotto (int.deposito),15646,1,45.5178626024757,9.23290217435261
T7,anassagora,15874,2,45.5147856489961,9.23149020912402
T7,parmenide,15647,3,45.5139466758169,9.22752222903556
T7,precotto m1,15648,4,45.5136086524979,9.22465631008104
T7,l.go mattei,15294,5,45.5140475824537,9.2210843349316
T7,arcimboldi ateneo nuovo,15292,6,45.5157185773825,9.21372741996636
T7,greco,15290,7,45.5133675932973,9.21388544464774
T7,universita' bicocca scienza,15288,8,45.5137325969746,9.21127647979684
T7,v.le rodi (bicocca m5),12281,9,45.5150165828622,9.20669650646638
T7,bicocca m5,17158,10,45.5149215486945,9.20512155739588
T7,v.le testi via s. marcellina,11986,11,45.5116376072507,9.20326356080949
T7,v.le testi via s. marcellina,17303,12,45.5116645728909,9.20396458400356
T5,ortica,12678,1,45.4714071613076,9.23782538221839
T5,via amadeo via s. benigno,12676,2,45.4711391547611,9.23661139836835
T5,via amadeo via paladini,12461,3,45.4710111101932,9.2336693959817
T5,via b. angelico via aselli,12450,4,45.4709811337786,9.23068044005646
T5,via b. angelico via colombo,12437,5,45.4709571205968,9.22684751361401
T5,p.za ferravilla,12422,6,45.470940086376,9.22428153710862
T5,p.za aspari,12412,7,45.4716810827821,9.22184559791726
T5,p.za ascoli,12168,8,45.4730260782517,9.21806463319082
T5,p.za adelaide di savoia,12154,9,45.4730320518035,9.21531466626877
T5,p.za otto novembre,12141,10,45.4746320277622,9.21140269171232
T5,p.ta venezia v.le tunisia,12970,11,45.4764730111725,9.20739072874187
T5,v.le tunisia,11887,12,45.4784499734366,9.20307275874837
T5,p.za cincinnato,11892,13,45.4799289672622,9.20409670776781
T5,via vitruvio,12172,14,45.4821619344192,9.20649169512411
T5,stazione centrale p.za duca d'aosta m2 m3,11890,15,45.4846348838559,9.20259573380986
T5,stazione centrale m2 m3,11915,16,45.48686887957,9.20207669497161
T5,stazione centrale via tonale,11930,17,45.4882018674076,9.20347871385857
T5,v.le lunigiana,11938,18,45.4914478458019,9.20553463076684
T5,v.le lunigiana via gioia,15612,19,45.4924148188491,9.20358071311584
T5,p.za carbonari,11910,20,45.494814776391,9.19747671100822
T5,marche m5,11903,21,45.4959197609264,9.19501674201892
T5,v.le zara via laurana,11948,22,45.4989427086075,9.1967547256998
T5,istria m5,11956,23,45.5018496728659,9.19838767713695
T5,v.le testi via dolcebuono,11961,24,45.5040416512645,9.19960966645881
T5,ca' granda m5,11974,25,45.5066486202228,9.19990862620985
T5,v.le ca' granda v.le suzzani,11968,26,45.5070376557213,9.19831065400786
T5,v.le ca' granda via val furva,11964,27,45.5077496131152,9.1954257173708
T5,v.le ca' granda via cherasco,11672,28,45.5084845985815,9.19226273296045
T5,ospedale maggiore (niguarda),15412,29,45.5089475767787,9.1904037399218
T5,ospedale maggiore (niguarda),17142,30,45.5085475860434,9.18976077990994
T4,niguarda (parco nord),15581,1,45.5248594153103,9.19228567317219
T4,cascina california,15429,2,45.5216104288096,9.19208768160705
T4,niguarda nord,15397,3,45.5188304916664,9.191914691535
T4,niguarda centro,15395,4,45.5144475231877,9.19121073552645
T4,girola,15393,5,45.5111495625305,9.19066773493881
T4,ospedale maggiore (niguarda),15391,6,45.5085835686789,9.18941676399766
T4,nizza,15389,7,45.5030326698212,9.1889627753846
T4,valassina,15387,8,45.5010376517009,9.18810480579786
T4,maciachini m3,15385,9,45.4982496980867,9.18555488251316
T4,via farini v.le stelvio,11618,10,45.4948307207635,9.18536288812421
T4,via farini via alserio,11614,11,45.4916017823239,9.18398794907195
T4,via farini via valtellina,11609,12,45.4890537874859,9.18291094489147
T4,via farini via ferrari,11587,13,45.4851498059787,9.18185200114683
T4,p.le baiamonti,11577,14,45.4831068603367,9.18152799623956
T4,v.le montello,11574,15,45.4802468870304,9.18104002263016
T4,p.za lega lombarda,11572,16,45.4787219018947,9.18074405253813
T4,arena,11532,17,45.4753719554926,9.18139000343162
T4,lanza m2,11541,18,45.471997998978,9.18204909363292
T4,p.za castello (cairoli m1),16961,19,45.4693709903127,9.18174907739829
T4,foro buonaparte via ricasoli,17826,20,45.4681201544205,9.17943878471781
T33,rimembranze di lambrate,12717,1,45.4826850381575,9.24140229150796
T33,via valvassori peroni,12704,2,45.4814590225758,9.23678336125063
T33,via bassini via golgi,12698,3,45.4805530316524,9.23451936728323
T33,via bassini via ponzio,12499,4,45.4793690575707,9.23026942098273
T33,p.za leonardo da vinci (politecnico),12490,5,45.4793419927099,9.22674347185483
T33,via pascoli p.za l. da vinci,12486,6,45.4771250855873,9.22559551298135
T33,v.le romagna via pascoli,12431,7,45.4763590842119,9.22420551600306
T33,p.za carlo erba,12418,8,45.4753100536326,9.22164654432979
T33,p.za ascoli,12169,9,45.4738320937581,9.21798159741303
T33,p.za adelaide di savoia,12154,10,45.4730320518035,9.21531466626877
T33,p.za otto novembre,12141,11,45.4746320277622,9.21140269171232
T33,p.ta venezia v.le tunisia,12970,12,45.4764730111725,9.20739072874187
T33,v.le tunisia,11887,13,45.4784499734366,9.20307275874837
T33,v.le vittorio veneto,11849,14,45.4769099961834,9.20113081189649
T33,repubblica m3,11877,15,45.4782059380898,9.19739884439542
T33,v.le monte santo,11862,16,45.4793469612183,9.19491587469604
T33,p.le principessa clotilde (osp. fatebenefratelli),11859,17,45.4803489347859,9.19256590879545
T33,v.le m.te grappa via gioia,17582,18,45.4808469215911,9.188483882555
T33,stazione garibaldi m2 m5,17326,19,45.4839138579424,9.18624994957007
T33,via farini via ferrari,17327,20,45.4857318607342,9.18243597533402
T33,via ugo bassi,11615,21,45.4888018137726,9.18402696967819
T33,via porro lambertenghi,11627,22,45.4890948202207,9.18697887813272
T33,p.le lagosta,17337,23,45.4900308380286,9.19131582279979
T31,bicocca m5,12280,1,45.5149205453731,9.20573051165624
T31,v.le testi via la farina,17160,2,45.5162255346866,9.20648750001383
T31,v.le testi via s. glicerio,12306,3,45.5186085211589,9.20783445520304
T31,ponale m5,12312,4,45.5221754946172,9.20984541266312
T31,bignami m5,12320,5,45.525952453367,9.21201438034135
T31,parco nord (torretta),15895,6,45.5298274225234,9.21355435213312
T31,parco nord clerici (sesto s.g.),15885,7,45.53379235983,9.21564526814267
T31,parco nord (ist. tecnico)(cinisello b.),15886,8,45.5374963400263,9.21786723126458
T31,parco nord (osp.bassini)(cinisello b.),15887,9,45.5457102854422,9.21812422463497
T31,gorky monfalcone (cinisello b.),15888,10,45.5511961712163,9.21771317263704
T31,liberta' (cinisello b.),15889,11,45.553412141001,9.21668515736668
T31,gramsci (cinisello b.),15896,12,45.5557901489489,9.21562519254952
T31,villa ghirlanda (cinisello b.),15890,13,45.5580200733016,9.2146791597982
T31,monte ortigara (cinisello b.),15926,14,45.5597310697846,9.21391118408195
T31,cinisello (primo maggio),15877,15,45.5599030962331,9.21107419311881
T3,gratosoglio,11091,1,45.4036847559222,9.17393553868903
T3,via dei missaglia via baroni,11093,2,45.4038397394779,9.17463755430778
T3,via dei missaglia (scuola santarosa),11095,3,45.4066026758483,9.17477049712377
T3,via dei missaglia via saponaro,11078,4,45.4101916652732,9.1744125037394
T3,via dei missaglia via feraboli,11081,5,45.4141915949451,9.17486546946645
T3,via dei missaglia via de ruggiero,11105,6,45.4182505834287,9.17547740717463
T3,via dei missaglia (isola anita),11108,7,45.4227775220961,9.17694839431006
T3,via dei missaglia via s. abbondio,11110,8,45.4244965275307,9.17709236395569
T3,via dei missaglia via boifava,11111,9,45.4266535089838,9.17728535607377
T3,p.za abbiategrasso m2,11131,10,45.4294264517323,9.17760135984553
T3,via montegani via neera,11136,11,45.4329064221783,9.17775536455982
T3,via montegani via palmieri,11137,12,45.4348324232179,9.17800830683496
T3,via montegani v.le da cermenate,11139,13,45.4372483800801,9.17830429313343
T3,via meda via spaventa,11163,14,45.4401333620137,9.17861828266864
T3,v.le tibaldi via meda,11165,15,45.4432963042936,9.17903925589525
T3,l.go mahler,11419,16,45.4461082890318,9.17944324350881
T3,c.so s. gottardo via lagrange,11441,17,45.44866424825,9.17972424124046
T3,p.za ventiquattro maggio,11443,18,45.4518721886766,9.18013920948999
T3,p.za s. eustorgio,11448,19,45.4537531639846,9.18043119697001
T3,colonne di s. lorenzo,15077,20,45.4572041735175,9.18096113486575
T3,carrobbio,11481,21,45.4599041329824,9.18128812426206
T3,via torino via s. maria valle,11486,22,45.4606821324187,9.18315713265118
T3,via torino via palla,14188,23,45.4615401046536,9.18558310080378
T3,duomo m1 m3,12938,24,45.4636750993966,9.1870740317486
T3,duomo m1 m3,11490,25,45.4643260914874,9.18701004458218
T27,ovidio,19621,1,45.457058951276,9.24183167519169
T27,via marco bruto,12652,2,45.4595133109162,9.23914341418367
T27,via repetti,12650,3,45.4616542808035,9.23819842431821
T27,forlanini,12647,4,45.4620752573601,9.23599341416289
T27,v.le corsica via lomellina,12405,5,45.4622991975982,9.23095054400103
T27,v.le corsica via battistotti sassi,12400,6,45.4623192209885,9.22826054010559
T27,v.le campania v.le corsica,12391,7,45.4621861781186,9.22443256896103
T27,p.za grandi,12127,8,45.4622211801877,9.22022165101852
T27,p.za emilia,12125,9,45.4622481943692,9.21783966636936
T27,via cadore c.so ventidue marzo,12111,10,45.4622541837805,9.21495869383894
T27,p.za s. maria del suffragio,12098,11,45.4622821817372,9.21162277559805
T27,p.za cinque giornate,12095,12,45.4623021841201,9.20802777322981
T27,c.so p.ta vittoria (camera del lavoro),11820,13,45.4623401614245,9.20329684545175
T27,palazzo di giustizia,11810,14,45.4623761267274,9.20002191028841
T27,l.go augusto,11797,15,45.4627611188968,9.19761689828615
T27,p.za fontana,15381,16,45.4633710872224,9.19405098884712
T24,vigentino,15082,1,45.4218866230584,9.20339411437607
T24,via ripamonti via chopin,15083,2,45.4252665810322,9.20349609201869
T24,via ripamonti via val di sole,15084,3,45.4291435229819,9.20243908694179
T24,via ripamonti via noto,11720,4,45.4314355135248,9.2017830190436
T24,via ripamonti via dell'assunta,11722,5,45.4331104669655,9.20132005830378
T24,via ripamonti via quaranta,11714,6,45.4356314696317,9.20082801684842
T24,via ripamonti via barletta,11743,7,45.4380064299797,9.20029703889687
T24,via ripamonti via serio,11738,8,45.4418253944279,9.19935904925875
T24,via ripamonti via lorenzini,11740,9,45.4432243487429,9.19898300828081
T24,v.le isonzo via ripamonti,11736,10,45.4462573181162,9.19815397833525
T24,via ripamonti via bellezza,11765,11,45.4483113061179,9.19756398945683
T24,via ripamonti v.le sabotino,11756,12,45.4506962729166,9.19695897345624
T24,c.so p.ta vigentina,11758,13,45.4535252477037,9.1962100147882
T24,crocetta m3,11761,14,45.4559341973187,9.19560001262714
T24,c.so p.ta romana via s. sofia,11520,15,45.4582071672587,9.192461021905
T24,missori m3,11511,16,45.460495149215,9.18857106831907
T24,missori m3,11515,17,45.4607571488549,9.19040402505794
T24,via larga,11794,18,45.4627781401537,9.19456395380851
T24,p.za fontana,11788,19,45.463302098617,9.19402891845866
T2,bausan,12978,1,45.5023975979307,9.16497310776317
T2,bausan,11335,2,45.501795571391,9.16588309992133
T2,via imbriani via scalvini,11334,3,45.4989776775121,9.16926005319143
T2,p.le nigra,11339,4,45.4969596989716,9.17073904316202
T2,lancetti,11325,5,45.4951917130143,9.17602798944365
T2,via bernina,11608,6,45.4956117346891,9.18094995221951
T2,via farini v.le stelvio,11617,7,45.4945977372535,9.18502192585911
T2,via farini via alserio,11614,8,45.4916017823239,9.18398794907195
T2,via farini via valtellina,11609,9,45.4890537874859,9.18291094489147
T2,via farini via ferrari,11587,10,45.4851498059787,9.18185200114683
T2,p.le baiamonti,11577,11,45.4831068603367,9.18152799623956
T2,v.le montello,11574,12,45.4802468870304,9.18104002263016
T2,p.za lega lombarda,11572,13,45.4787219018947,9.18074405253813
T2,arena,11532,14,45.4753719554926,9.18139000343162
T2,lanza m2,11541,15,45.471997998978,9.18204909363292
T2,via cusani,11547,16,45.4693850250889,9.18517607636754
T2,cordusio m1,11497,17,45.4662150396436,9.18615304868802
T2,duomo m1 m3,11505,18,45.4639120894044,9.18798705769749
T2,duomo m1 m3,11502,19,45.46330508679,9.18762304054479
T2,via torino via palla,14187,20,45.4616571077757,9.18557704995127
T2,via torino via s. maria valle,11484,21,45.460788116359,9.18323209813633
T2,carrobbio,11477,22,45.4597221119452,9.17972312624602
T2,c.so genova via ariberto,11225,23,45.4580351205189,9.17656720660009
T2,p.le cantore,11194,24,45.4553221817677,9.17264224674673
T2,p.ta genova m2,11177,25,45.4524151943421,9.16985530021825
T2,via valenza alzaia nav. grande,11174,26,45.4506591840181,9.16810633693128
T2,ripa di p.ta ticinese via lombardini,10856,27,45.4494881829809,9.1642534060256
T2,ripa di p.ta ticinese via d'adda,10850,28,45.4486702217635,9.16037948835503
T2,ponte delle milizie,10845,29,45.4482702328788,9.15834748001891
T2,via l. il moro via pestalozzi,10836,30,45.4477521753616,9.15602149718539
T2,"via l. il moro, 25",10537,31,45.4466041844549,9.15062258010518
T2,via l. il moro cavalcavia don milani,10530,32,45.4455882184033,9.14587065565397
T2,via l. il moro via guintellino,10523,33,45.4449042130434,9.14269074573845
T2,p.le negrelli,17923,34,45.4442212591256,9.13928712610291
T2,p.le negrelli,10519,35,45.4440061605077,9.13987569320092
T19,p.le cacciatori delle alpi,10469,1,45.5043594659156,9.1369244496754
T19,v.le espinasse via palizzi,10699,2,45.5030075254349,9.13808843772913
T19,p.le santorre di santarosa,10701,3,45.5009395480359,9.13953638340741
T19,v.le espinasse via nuvolone,10708,4,45.498007593506,9.14157839367364
T19,v.le espinasse via casella,10682,5,45.4954306156009,9.14337940876164
T19,v.le espinasse p.le accursio,10686,6,45.4935436351715,9.14468643501001
T19,v.le certosa via grosotto,10689,7,45.4917016832332,9.14757140211411
T19,v.le certosa v.le serra,10694,8,45.4901136882784,9.15105531013437
T19,p.za firenze,10978,9,45.4878336994227,9.15607230631443
T19,c.so sempione via e. filiberto,10945,10,45.4861337533816,9.15839526654548
T19,c.so sempione via arona,10953,11,45.4842287741834,9.16057426487559
T19,domodossola fn m5,10960,12,45.4824267848038,9.16295125215183
T19,domodossola fn m5,17550,13,45.4814457851761,9.1618512563932
T19,v.le boezio,17552,14,45.4797148517667,9.16017229785411
T19,p.za sei febbraio,10947,15,45.4770999025595,9.1606692693743
T19,via monti via savoia cavalleria,10932,16,45.4747409024801,9.16404327992962
T19,l.go quinto alpini,11253,17,45.4725639526005,9.16692324515614
T19,via venti settembre,11256,18,45.4701829654469,9.17000919383641
T19,p.za virgilio,11263,19,45.4682979880739,9.17253019052481
T19,l.go d'ancona,11231,20,45.4661470386711,9.17536221980451
T19,c.so magenta via nirone,11241,21,45.4658080335444,9.17801112735125
T19,via meravigli,11485,22,45.4656910495222,9.18172709432447
T19,cordusio m1,11492,23,45.4654820778596,9.18584806291649
T19,duomo m1 m3,11500,24,45.4629681261669,9.18840204168583
T19,missori m3,11515,25,45.4607571488549,9.19040402505794
T19,via larga,11794,26,45.4627781401537,9.19456395380851
T19,l.go augusto,11798,27,45.462537160389,9.19785491803363
T19,palazzo di giustizia,11816,28,45.4623001537483,9.20077685716806
T19,c.so p.ta vittoria (camera del lavoro),11823,29,45.4622751421515,9.20382684463351
T19,p.za cinque giornate,12090,30,45.4617641907139,9.20736082464877
T19,v.le premuda,12092,31,45.4653281609673,9.20731379722101
T19,p.za tricolore,12129,32,45.4675080868562,9.20712477875138
T19,v.le piave,12133,33,45.4716880863354,9.2067187721618
T19,via bixio,12139,34,45.472360071479,9.21096167847399
T19,p.za adelaide di savoia,12145,35,45.4727820883379,9.21414164958944
T19,p.za ascoli,12163,36,45.473259060136,9.21669865313967
T19,p.za carlo erba,12415,37,45.4748930555659,9.22085956668486
T19,v.le romagna via pascoli,12429,38,45.4758760742162,9.2231975335897
T19,via pascoli p.za l. da vinci,12435,39,45.4767780499947,9.22551252294448
T19,p.za leonardo da vinci (politecnico),12489,40,45.4790960262013,9.22570249142784
T19,via bassini via ponzio,12494,41,45.4792640299711,9.22968943496716
T19,via bassini via golgi,12505,42,45.4802360373179,9.23396438808537
T19,via valvassori peroni,12703,43,45.4811950703495,9.23634733579253
T19,stazione lambrate m2,12709,44,45.4849009662731,9.23647233888519
T19,stazione lambrate m2,12707,45,45.4845769770016,9.23588831194952
T16,san siro stadio m5,17469,1,45.476751782095,9.12209478280374
T16,p.za axum (stadio meazza),17470,2,45.4760977719909,9.1230797718119
T16,san siro ippodromo m5,17471,3,45.4760468137223,9.12834666767268
T16,p.za esquilino,17472,4,45.4759897877963,9.13168864667821
T16,segesta m5,17473,5,45.4757018140262,9.13824756204377
T16,p.za m.te falterona,10612,6,45.474521857314,9.13979758762806
T16,via dolci via ricciarelli,10619,7,45.4724369076496,9.14253354441802
T16,p.le brescia (osp. san luca),10629,8,45.4697928790411,9.14602054460313
T16,via faruffini via correggio,10632,9,45.468325895025,9.14796750605465
T16,de angeli m1,10633,10,45.4670289163551,9.14967847533622
T16,p.za piemonte,10906,11,45.4669149845136,9.15408646915881
T16,c.so vercelli via cherubini,10881,12,45.466562026122,9.15889140217736
T16,c.so vercelli l.go settimio severo,10888,13,45.4663280288142,9.16210833911192
T16,p.le baracca,10898,14,45.4661519678759,9.16446435135818
T16,s. maria delle grazie,11216,15,45.4656640526553,9.17010428445648
T16,l.go d'ancona,11230,16,45.465809038762,9.17514313940652
T16,c.so magenta via nirone,11241,17,45.4658080335444,9.17801112735125
T16,via meravigli,11485,18,45.4656910495222,9.18172709432447
T16,cordusio m1,11492,19,45.4654820778596,9.18584806291649
T16,duomo m1 m3,11500,20,45.4629681261669,9.18840204168583
T16,missori m3,11510,21,45.4602031189369,9.18884205885316
T16,c.so p.ta romana via s. sofia,11519,22,45.4577181934169,9.19309401758225
T16,crocetta m3,11762,23,45.4561432012332,9.19657697523771
T16,via lamarmora via commenda,11769,24,45.4565492041264,9.19905494183543
T16,via lamarmora,11775,25,45.4568872330591,9.20123692043224
T16,v.le monte nero via bergamo,11827,26,45.4575261942109,9.20624185619175
T16,via bergamo,12052,27,45.456450235954,9.20890881553843
T16,via cadore via bergamo,12056,28,45.4556992639624,9.21080277628161
T16,via comelico,12062,29,45.4546962783859,9.2132747843636
T16,v.le umbria via comelico,12065,30,45.453478279848,9.21450577604497
T16,via tito livio,12069,31,45.4519863126009,9.21598075571388
T16,p.za salgari,12082,32,45.4503263071614,9.22006670281871
T16,p.le cuoco,12382,33,45.4512083451425,9.22497268533444
T16,via del turchino via maspero,12383,34,45.4518023808703,9.2273505769189
T16,via varsavia via m.te velino,12387,35,45.4526053722387,9.22921662441498
T16,via monte velino,12385,36,45.4530633566515,9.22892456064416
T15,guido rossa,18076,1,45.3769384070206,9.15001487046494
T15,v.le liguria,18084,2,45.3786184235079,9.14921968323882
T15,v.le liguria,18082,3,45.3806451153323,9.15515044864768
T15,viale lonni,18080,4,45.3818731072217,9.15909765201062
T15,romagna - cabrini,18078,5,45.3828335726983,9.16199998970044
T15,v.le romagna (rozzano),11060,6,45.3834499255241,9.16727176211086
T15,via grandi via buozzi (rozzano),11063,7,45.3839359254475,9.17061071491967
T15,via curiel via isonzo (rozzano),11064,8,45.3891068635032,9.17208963372403
T15,via curiel via lambro (rozzano),11066,9,45.3942608751753,9.17302263590518
T15,via curiel via maggi (rozzano),11087,10,45.3982208021848,9.17345660238319
T15,via dei missaglia via baroni,11093,11,45.4038397394779,9.17463755430778
T15,via dei missaglia (scuola santarosa),11095,12,45.4066026758483,9.17477049712377
T15,via dei missaglia via saponaro,11078,13,45.4101916652732,9.1744125037394
T15,via dei missaglia via feraboli,11081,14,45.4141915949451,9.17486546946645
T15,via dei missaglia via de ruggiero,11105,15,45.4182505834287,9.17547740717463
T15,via dei missaglia (isola anita),11108,16,45.4227775220961,9.17694839431006
T15,via dei missaglia via s. abbondio,11110,17,45.4244965275307,9.17709236395569
T15,via dei missaglia via boifava,11111,18,45.4266535089838,9.17728535607377
T15,p.za abbiategrasso m2,11131,19,45.4294264517323,9.17760135984553
T15,medeghino,15365,20,45.4314244569455,9.18049431482602
T15,agrippa,15367,21,45.4327384541177,9.18305924576066
T15,volvinio,15369,22,45.4346254221871,9.18371022241862
T15,g. da cermenate,15371,23,45.4377263542351,9.18345120583689
T15,pezzotti,15373,24,45.4412193221179,9.18318024809278
T15,tibaldi,15375,25,45.4444143007887,9.18342317762112
T15,giambologna,15377,26,45.4456793027006,9.18466320208938
T15,castelbarco,15379,27,45.4487592760277,9.18562013745675
T15,porta lodovica,11459,28,45.4515662153166,9.18659209744286
T15,c.so italia via lusardi,11463,29,45.4536352264076,9.18701711289385
T15,c.so italia via s. sofia,11464,30,45.4559111957625,9.18745908571606
T15,c.so italia (missori m3),11499,31,45.4601811522486,9.18824606312246
T15,duomo m1 m3,11512,32,45.4632121245754,9.18972297119549
T14,lorenteggio,12984,1,45.4417471615128,9.11699204465723
T14,via gonin via m. di lorenteggio,10199,2,45.4409311663186,9.11875000342125
T14,via gonin via giordani,10204,3,45.4424781741286,9.12352397870908
T14,san cristoforo fs,10335,4,45.4447261533902,9.13043188166146
T14,via giambellino via sanniti,10337,5,45.445125140236,9.13173483298613
T14,via giambellino via odazio,10342,6,45.4460931463901,9.13465879897272
T14,l.go gelsomini l.go giambellino,10539,7,45.4476541462602,9.13944169343484
T14,via brunelleschi,10547,8,45.44896716484,9.14352771017477
T14,via giambellino via vignoli,10561,9,45.4505121651993,9.14835555256929
T14,via giambellino via tolstoj,10564,10,45.4512671075312,9.15064956934592
T14,p.za napoli,10825,11,45.452304163843,9.15386453212647
T14,via solari via stendhal,10846,12,45.4539021387673,9.15878948164598
T14,p.za del rosario,10854,13,45.4552601578658,9.16301837711347
T14,via montevideo,11172,14,45.4562821076961,9.16617031178559
T14,v.le coni zugna via solari,11175,15,45.4570281513848,9.16900734968246
T14,p.le cantore,11187,16,45.4553101603712,9.17207924366631
T14,c.so genova via ariberto,11200,17,45.4571441588258,9.17546324662997
T14,p.za resistenza partigiana,11234,18,45.4584971293284,9.17748517901606
T14,carrobbio,11482,19,45.4600781094434,9.18090813483
T14,via torino via s. maria valle,11486,20,45.4606821324187,9.18315713265118
T14,via torino via palla,14188,21,45.4615401046536,9.18558310080378
T14,duomo m1 m3,11504,22,45.4634760898664,9.18799900708334
T14,via orefici p.za cordusio,11491,23,45.4645690826372,9.18722703026785
T14,via cusani,11548,24,45.4695290193298,9.18523003067947
T14,lanza m2,11542,25,45.4721919764079,9.18196806354204
T14,arena,11533,26,45.4752289384666,9.18157005780353
T14,p.za lega lombarda,15689,27,45.4780189382899,9.18052604890366
T14,via bramante via giannone,11567,28,45.4795638862716,9.17991902011311
T14,via bramante via sarpi,11568,29,45.481550886961,9.17908006892279
T14,p.le cim.monumentale via bramante,11313,30,45.483873822918,9.17769606473353
T14,cenisio m5,11323,31,45.4875027900256,9.17297707636552
T14,via cenisio via induno,11321,32,45.4876207649711,9.16891512395899
T14,p.za diocleziano,11008,33,45.4877107662017,9.16493021149474
T14,p.za caneva,11001,34,45.4877917770698,9.16144724098829
T14,p.za firenze,10988,35,45.4879177747983,9.15704431555813
T14,v.le certosa v.le serra,10965,36,45.4899016897828,9.15178236350315
T14,v.le certosa via grosotto,10688,37,45.4916266426338,9.14797834784699
T14,p.le accursio,14998,38,45.4928266349142,9.14537342326833
T14,v.le certosa via casella,10678,39,45.494587583498,9.14147042795874
T14,v.le certosa via giannini,10697,40,45.4961756171235,9.1380095105751
T14,v.le certosa via tibullo,10466,41,45.4981525272304,9.13360354389146
T14,v.le certosa via gradisca,10462,42,45.5001415193143,9.1292255833263
T14,v.le certosa via cormons,10453,43,45.5012654915251,9.12673860001937
T14,v.le certosa via giorgini,10448,44,45.5022354983323,9.1246436205356
T14,v.le certosa (cimitero  maggiore),10314,45,45.503367447254,9.1221356243195
T14,p.le cimitero maggiore,10308,46,45.5032824444863,9.12065262597097
T14,p.le cimitero maggiore,10305,47,45.5029284804319,9.12139264155983
T12,roserio (ospedale sacco),10323,1,45.5173373311372,9.11977955197985
T12,via grassi,10471,2,45.5138023481848,9.12555352214887
T12,l.go boccioni,10473,3,45.5115923809148,9.12805852429265
T12,via palizzi via mambretti,10481,4,45.5083878407097,9.13521024298278
T12,certosa s,10725,5,45.507802464068,9.13722344127792
T12,v.le espinasse via palizzi,10703,6,45.5028065182225,9.13868843612033
T12,p.le santorre di santarosa,10701,7,45.5009395480359,9.13953638340741
T12,via c. marcello via m. altissimo,14904,8,45.501999526465,9.14269138367655
T12,via c. marcello (villapizzone),10716,9,45.5011545456518,9.14542931894763
T12,via c. marcello via grugnola,10721,10,45.5000705687596,9.14767627894016
T12,p.za castelli,10723,11,45.4989775733038,9.15004133974957
T12,via mac mahon via bramantino,11013,12,45.4978226089683,9.15267928826349
T12,via mac mahon via artieri,11015,13,45.4962976437695,9.15469923029338
T12,via mac mahon v.le m.te ceneri,10992,14,45.4942746576656,9.15734325340075
T12,via mac mahon via caracciolo,11003,15,45.4911053253758,9.16147979928111
T12,via mac mahon via p. eugenio,11006,16,45.4894197761735,9.16372816471983
T12,p.za diocleziano,11009,17,45.4880347887544,9.16552415283711
T12,via cenisio via induno,11320,18,45.4875207997719,9.16832215008936
T12,cenisio m5,11322,19,45.4874027782905,9.17305506951547
T12,p.le cim.monumentale via bramante,15049,20,45.4836588306582,9.17775105023752
T12,via bramante via sarpi,11312,21,45.4818128563653,9.1788240777639
T12,p.za lega lombarda,11566,22,45.4779029318814,9.18041405373476
T12,arena,11532,23,45.4753719554926,9.18139000343162
T12,lanza m2,11541,24,45.471997998978,9.18204909363292
T12,via cusani,11547,25,45.4693850250889,9.18517607636754
T12,cordusio m1,11497,26,45.4662150396436,9.18615304868802
T12,duomo m1 m3,11500,27,45.4629681261669,9.18840204168583
T12,missori m3,11515,28,45.4607571488549,9.19040402505794
T12,via larga,11794,29,45.4627781401537,9.19456395380851
T12,l.go augusto,11798,30,45.462537160389,9.19785491803363
T12,palazzo di giustizia,11816,31,45.4623001537483,9.20077685716806
T12,c.so p.ta vittoria (camera del lavoro),11823,32,45.4622751421515,9.20382684463351
T12,p.za cinque giornate,12094,33,45.4622111782892,9.20875575639384
T12,p.za s. maria del suffragio,12099,34,45.4621901552634,9.21104178227657
T12,via cadore c.so ventidue marzo,12108,35,45.4621872019833,9.21427674341147
T12,p.za emilia,14872,36,45.4617122111966,9.21728169485728
T12,via arconati,14873,37,45.4578232210035,9.21848468000596
T12,p.le martini,14874,38,45.4567762666815,9.22222165128967
T12,v.le molise,14869,39,45.4572373061018,9.22393161156749
T10,v.le lunigiana,15401,1,45.4914268413932,9.20562963821296
T10,via schiaparelli via p.te seveso,17611,2,45.4897074762311,9.20476386549787
T10,stazione centrale via tonale,11929,3,45.4886048783494,9.20372266139448
T10,stazione centrale m2 m3,11916,4,45.4868168682125,9.20186968479484
T10,via filzi via pirelli,15529,5,45.4842249064654,9.20011976706521
T10,via filzi via adda,11879,6,45.4831148921049,9.19941078708611
T10,p.za s. gioachimo,12991,7,45.4814609463724,9.19807882565433
T10,v.le monte santo,11863,8,45.4797369226096,9.19482785041019
T10,p.le principessa clotilde (osp. fatebenefratelli),11859,9,45.4803489347859,9.19256590879545
T10,v.le m.te grappa via gioia,17582,10,45.4808469215911,9.188483882555
T10,stazione garibaldi m2 m5,17326,11,45.4839138579424,9.18624994957007
T10,via farini via ferrari,17668,12,45.485704266209,9.18247123583827
T10,monumentale m5,17612,13,45.4845858230071,9.18042268226992
T10,p.le cim.monumentale via bramante,17613,14,45.4843166934545,9.17803859425653
T10,via procaccini via lomazzo,11297,15,45.4837228239003,9.17104311754285
T10,p.za gramsci,11290,16,45.4820308554856,9.16802316266376
T10,c.so sempione via procaccini,11284,17,45.4809848278498,9.16637423349196
T10,c.so sempione via villasanta,11283,18,45.4793498665305,9.166951206733
T10,c.so sempione via canova,11287,19,45.4778718866219,9.16897420161929
T10,arco della pace,11262,20,45.476308899474,9.17151918007782
T10,via pagano via canova,11258,21,45.4741879449934,9.17001519835832
T10,l.go quinto alpini,11252,22,45.4726029560821,9.16757622317937
T10,via ariosto,11249,23,45.4699539462175,9.16591924430126
T10,conciliazione m1,11245,24,45.4678720165757,9.16529130059694
T10,p.le baracca,10899,25,45.4663559880751,9.16483830590783
T10,v.le s. michele del carso p.za de meis,10896,26,45.4639230205238,9.16412034741655
T10,p.le aquileia,10890,27,45.4610550422339,9.16331834665059
T10,v.le coni zugna via foppa,11204,28,45.4596130569741,9.16550937992451
T10,v.le coni zugna via solari,11212,29,45.4572121360316,9.16922727056079
T10,p.le cantore,11187,30,45.4553101603712,9.17207924366631
T10,p.ta genova m2,11179,31,45.4534181670206,9.17002129411278
T10,via vigevano via corsico,11191,32,45.4530071802505,9.17289125303977
T10,via vigevano v.le gorizia,11198,33,45.4527851674734,9.17581221839884
T10,p.za ventiquattro maggio,17553,34,45.4518782138197,9.17931117606135
T1,roserio (ospedale sacco),14909,1,45.517371283956,9.11975555161892
T1,via grassi,10471,2,45.5138023481848,9.12555352214887
T1,l.go boccioni,10473,3,45.5115923809148,9.12805852429265
T1,via palizzi via mambretti,10481,4,45.5083878407097,9.13521024298278
T1,certosa s,10725,5,45.507802464068,9.13722344127792
T1,v.le espinasse via palizzi,10703,6,45.5028065182225,9.13868843612033
T1,p.le santorre di santarosa,10701,7,45.5009395480359,9.13953638340741
T1,v.le espinasse via nuvolone,10708,8,45.498007593506,9.14157839367364
T1,v.le espinasse via casella,10682,9,45.4954306156009,9.14337940876164
T1,v.le espinasse p.le accursio,10686,10,45.4935436351715,9.14468643501001
T1,v.le certosa via grosotto,10689,11,45.4917016832332,9.14757140211411
T1,v.le certosa v.le serra,10694,12,45.4901136882784,9.15105531013437
T1,p.za firenze,10978,13,45.4878336994227,9.15607230631443
T1,c.so sempione via e. filiberto,10945,14,45.4861337533816,9.15839526654548
T1,c.so sempione via arona,10953,15,45.4842287741834,9.16057426487559
T1,domodossola fn m5,10960,16,45.4824267848038,9.16295125215183
T1,c.so sempione via procaccini,11281,17,45.4803648624566,9.16581120128608
T1,c.so sempione via villasanta,11283,18,45.4793498665305,9.166951206733
T1,c.so sempione via canova,11287,19,45.4778718866219,9.16897420161929
T1,arco della pace,11262,20,45.476308899474,9.17151918007782
T1,via pagano via canova,11258,21,45.4741879449934,9.17001519835832
T1,l.go quinto alpini,11252,22,45.4726029560821,9.16757622317937
T1,via venti settembre,11256,23,45.4701829654469,9.17000919383641
T1,p.za virgilio,11263,24,45.4682979880739,9.17253019052481
T1,cadorna m1 m2,11270,25,45.467950018575,9.17625415841731
T1,foro buonaparte via ricasoli,11522,26,45.4675810568535,9.17917009031583
T1,cairoli m1,11536,27,45.4683140308826,9.18257904344387
T1,via cusani,11546,28,45.4688410215274,9.1848330408409
T1,cordusio m1,11497,29,45.4662150396436,9.18615304868802
T1,via grossi,11509,30,45.4655780929113,9.18783805240899
T1,teatro alla scala,11557,31,45.4663820878814,9.1888880214901
T1,montenapoleone m3,11560,32,45.4693060496454,9.19200492642361
T1,via manzoni via pisoni,11830,33,45.4710350389796,9.19378692399198
T1,p.za cavour,11840,34,45.4727840035142,9.19521188846636
T1,turati m3,11838,35,45.4755620006146,9.19465892826158
T1,repubblica m3,11876,36,45.4778909549995,9.19779086198956
T1,v.le vittorio veneto,11882,37,45.4767429882315,9.200348804051
T1,v.le tunisia,11886,38,45.4783119768467,9.20258476953191
T1,p.za cincinnato,11892,39,45.4799289672622,9.20409670776781
T1,via vitruvio,12172,40,45.4821619344192,9.20649169512411
T1,via settembrini,12175,41,45.4835309320752,9.20788264846263
T1,caiazzo m2,12183,42,45.48557090167,9.21006459805648
T1,v.le brianza,12242,43,45.4876418653067,9.21222856595935
T1,via venini via battaglia,12245,44,45.4893488676458,9.2140465559598
T1,via venini via sauli,12247,45,45.4907948975226,9.21555656789839
T1,p.za morbegno,12253,46,45.4926378623081,9.21643054582615
T1,greco rovereto,12254,47,45.4949988165282,9.21624148069724
